{"data":[{"id":72294,"wikiDataId":"Q626121","type":"CITY","city":"Araouane","name":"Araouane","latitude":18.90476,"longitude":-3.52649},{"id":153887,"wikiDataId":"Q1499253","type":"ADM2","city":"Cercle de Goundam","name":"Cercle de Goundam","latitude":18.60035,"longitude":-4.99306},{"id":153869,"type":"ADM2","city":"Dire","name":"Dire","latitude":16.28017,"longitude":-3.31302},{"id":71837,"wikiDataId":"Q976923","type":"CITY","city":"Goundam","name":"Goundam","latitude":16.41453,"longitude":-3.67075},{"id":153884,"wikiDataId":"Q1540214","type":"ADM2","city":"Gourma-Rharous Cercle","name":"Gourma-Rharous Cercle","latitude":16.07979,"longitude":-1.76981},{"id":71923,"wikiDataId":"Q3100146","type":"CITY","city":"Niafunké","name":"Niafunké","latitude":15.9322,"longitude":-3.9906},{"id":72339,"wikiDataId":"Q9427","type":"CITY","city":"Timbuktu","name":"Timbuktu","latitude":16.77348,"longitude":-3.00742}],"metadata":{"currentOffset":0,"totalCount":7}}
