{"data":[{"id":80906,"wikiDataId":"Q438851","type":"CITY","city":"Arandis","name":"Arandis","latitude":-22.41667,"longitude":14.96667},{"id":81534,"wikiDataId":"Q1013389","type":"CITY","city":"Hentiesbaai","name":"Hentiesbaai","latitude":-22.11667,"longitude":14.28333},{"id":81327,"wikiDataId":"Q1348181","type":"CITY","city":"Karibib","name":"Karibib","latitude":-21.93333,"longitude":15.83333},{"id":81612,"wikiDataId":"Q1896161","type":"CITY","city":"Omaruru","name":"Omaruru","latitude":-21.43333,"longitude":15.93333},{"id":81086,"wikiDataId":"Q464050","type":"CITY","city":"Otjimbingwe","name":"Otjimbingwe","latitude":-22.35,"longitude":16.13333},{"id":81032,"wikiDataId":"Q59698","type":"CITY","city":"Swakopmund","name":"Swakopmund","latitude":-22.67842,"longitude":14.52663},{"id":157151,"wikiDataId":"Q3711710","type":"ADM2","city":"Swakopmund Constituency","name":"Swakopmund Constituency","latitude":-22.63199,"longitude":14.60119},{"id":80813,"wikiDataId":"Q1457265","type":"CITY","city":"Usakos","name":"Usakos","latitude":-22.0,"longitude":15.6},{"id":81034,"wikiDataId":"Q220843","type":"CITY","city":"Walvis Bay","name":"Walvis Bay","latitude":-22.9575,"longitude":14.50528}],"metadata":{"currentOffset":0,"totalCount":9}}
