{"data":[{"id":81458,"wikiDataId":"Q626040","type":"CITY","city":"Aranos","name":"Aranos","latitude":-24.13333,"longitude":19.11667},{"id":81445,"wikiDataId":"Q1621498","type":"CITY","city":"Hoachanas","name":"Hoachanas","latitude":-23.91667,"longitude":18.05},{"id":81005,"wikiDataId":"Q666079","type":"CITY","city":"Maltahöhe","name":"Maltahöhe","latitude":-24.83333,"longitude":16.98333},{"id":81188,"wikiDataId":"Q876166","type":"CITY","city":"Mariental","name":"Mariental","latitude":-24.63333,"longitude":17.96667},{"id":81522,"wikiDataId":"Q700050","type":"CITY","city":"Rehoboth","name":"Rehoboth","latitude":-23.317,"longitude":17.09}],"metadata":{"currentOffset":0,"totalCount":5}}
