{"data":[{"id":47015,"wikiDataId":"Q395201","type":"CITY","city":"Agogo","name":"Agogo","latitude":6.80004,"longitude":-1.08193},{"id":47734,"wikiDataId":"Q815055","type":"CITY","city":"Bekwai","name":"Bekwai","latitude":6.45195,"longitude":-1.57866},{"id":47585,"wikiDataId":"Q1322026","type":"CITY","city":"Ejura","name":"Ejura","latitude":7.38558,"longitude":-1.35617},{"id":46987,"wikiDataId":"Q1016732","type":"CITY","city":"Konongo","name":"Konongo","latitude":6.61667,"longitude":-1.21667},{"id":47028,"wikiDataId":"Q182059","type":"CITY","city":"Kumasi","name":"Kumasi","latitude":6.68848,"longitude":-1.62443},{"id":47669,"wikiDataId":"Q992747","type":"CITY","city":"Mampong","name":"Mampong","latitude":7.06273,"longitude":-1.4001},{"id":46984,"wikiDataId":"Q1020901","type":"CITY","city":"Obuase","name":"Obuase","latitude":6.20228,"longitude":-1.66796},{"id":47165,"wikiDataId":"Q7674984","type":"CITY","city":"Tafo","name":"Tafo","latitude":6.73156,"longitude":-1.6137}],"metadata":{"currentOffset":0,"totalCount":8}}
