{"data":[{"id":47771,"wikiDataId":"Q813582","type":"CITY","city":"Bechem","name":"Bechem","latitude":7.09034,"longitude":-2.02498},{"id":46917,"wikiDataId":"Q818988","type":"CITY","city":"Berekum","name":"Berekum","latitude":7.4534,"longitude":-2.58404},{"id":47455,"wikiDataId":"Q5310449","type":"CITY","city":"Duayaw Nkwanta","name":"Duayaw Nkwanta","latitude":7.17242,"longitude":-2.10281},{"id":47107,"type":"CITY","city":"Japekrom","name":"Japekrom","latitude":7.5758,"longitude":-2.78516},{"id":47794,"wikiDataId":"Q1742284","type":"CITY","city":"Kintampo","name":"Kintampo","latitude":8.05627,"longitude":-1.73058},{"id":47192,"wikiDataId":"Q406037","type":"CITY","city":"Sunyani","name":"Sunyani","latitude":7.33991,"longitude":-2.32676},{"id":47059,"wikiDataId":"Q964069","type":"CITY","city":"Techiman","name":"Techiman","latitude":7.58417,"longitude":-1.93815},{"id":47268,"wikiDataId":"Q2236059","type":"CITY","city":"Wenchi","name":"Wenchi","latitude":7.73916,"longitude":-2.10456}],"metadata":{"currentOffset":0,"totalCount":8}}
