{"data":[{"id":47743,"wikiDataId":"Q617438","type":"CITY","city":"Apam","name":"Apam","latitude":5.28483,"longitude":-0.73711},{"id":47236,"wikiDataId":"Q221283","type":"CITY","city":"Cape Coast","name":"Cape Coast","latitude":5.10535,"longitude":-1.2466},{"id":47194,"wikiDataId":"Q5315398","type":"CITY","city":"Dunkwa","name":"Dunkwa","latitude":5.95996,"longitude":-1.77792},{"id":47405,"wikiDataId":"Q968662","type":"CITY","city":"Elmina","name":"Elmina","latitude":5.0847,"longitude":-1.35093},{"id":47178,"wikiDataId":"Q4808889","type":"CITY","city":"Foso","name":"Foso","latitude":5.70119,"longitude":-1.28657},{"id":47237,"wikiDataId":"Q656652","type":"CITY","city":"Kasoa","name":"Kasoa","latitude":5.53449,"longitude":-0.41679},{"id":47363,"type":"CITY","city":"Mumford","name":"Mumford","latitude":5.26176,"longitude":-0.75897},{"id":47697,"wikiDataId":"Q340149","type":"CITY","city":"Saltpond","name":"Saltpond","latitude":5.20913,"longitude":-1.06058},{"id":47353,"wikiDataId":"Q395265","type":"CITY","city":"Swedru","name":"Swedru","latitude":5.53711,"longitude":-0.69984},{"id":47766,"wikiDataId":"Q1188560","type":"CITY","city":"Winneba","name":"Winneba","latitude":5.35113,"longitude":-0.62313}],"metadata":{"currentOffset":0,"totalCount":10}}
