{"data":[{"id":47127,"wikiDataId":"Q336029","type":"CITY","city":"Aburi","name":"Aburi","latitude":5.84802,"longitude":-0.17449},{"id":47011,"wikiDataId":"Q418402","type":"CITY","city":"Akim Oda","name":"Akim Oda","latitude":5.92665,"longitude":-0.98577},{"id":47444,"wikiDataId":"Q4701024","type":"CITY","city":"Akim Swedru","name":"Akim Swedru","latitude":5.8938,"longitude":-1.01636},{"id":47494,"type":"CITY","city":"Akropong","name":"Akropong","latitude":5.97462,"longitude":-0.08542},{"id":47787,"wikiDataId":"Q4702013","type":"CITY","city":"Akwatia","name":"Akwatia","latitude":6.04024,"longitude":-0.80876},{"id":47368,"wikiDataId":"Q720732","type":"CITY","city":"Asamankese","name":"Asamankese","latitude":5.86006,"longitude":-0.6635},{"id":47558,"type":"CITY","city":"Begoro","name":"Begoro","latitude":6.38706,"longitude":-0.37738},{"id":47035,"wikiDataId":"Q6404011","type":"CITY","city":"Kibi","name":"Kibi","latitude":6.16494,"longitude":-0.55376},{"id":47359,"wikiDataId":"Q406358","type":"CITY","city":"Koforidua","name":"Koforidua","latitude":6.09408,"longitude":-0.25913},{"id":47597,"type":"CITY","city":"Mpraeso","name":"Mpraeso","latitude":6.59321,"longitude":-0.73462}],"links":[{"rel":"first","href":"/v1/geo/countries/Q117/regions/Q405670/cities?offset=0&limit=10"},{"rel":"next","href":"/v1/geo/countries/Q117/regions/Q405670/cities?offset=10&limit=10"},{"rel":"last","href":"/v1/geo/countries/Q117/regions/Q405670/cities?offset=10&limit=10"}],"metadata":{"currentOffset":0,"totalCount":12}}
{"data":[{"id":47103,"wikiDataId":"Q1450481","type":"CITY","city":"Suhum","name":"Suhum","latitude":6.04089,"longitude":-0.45004}],"links":[{"rel":"first","href":"/v1/geo/countries/Q117/regions/Q405670/cities?offset=0&limit=10"},{"rel":"prev","href":"/v1/geo/countries/Q117/regions/Q405670/cities?offset=0&limit=10"},{"rel":"last","href":"/v1/geo/countries/Q117/regions/Q405670/cities?offset=10&limit=10"}],"metadata":{"currentOffset":10,"totalCount":11}}
