{"data":[{"id":47104,"wikiDataId":"Q3761","type":"CITY","city":"Accra","name":"Accra","latitude":5.55602,"longitude":-0.1969},{"id":47561,"type":"CITY","city":"Atsiaman","name":"Atsiaman","latitude":5.69775,"longitude":-0.32824},{"id":46928,"wikiDataId":"Q1236987","type":"CITY","city":"Dome","name":"Dome","latitude":5.65003,"longitude":-0.2361},{"id":47692,"wikiDataId":"Q1496746","type":"CITY","city":"Gbawe","name":"Gbawe","latitude":5.57692,"longitude":-0.31038},{"id":47354,"wikiDataId":"Q1316141","type":"CITY","city":"Medina Estates","name":"Medina Estates","latitude":5.6658,"longitude":-0.16307},{"id":47835,"wikiDataId":"Q493990","type":"CITY","city":"Nungua","name":"Nungua","latitude":5.60105,"longitude":-0.07713},{"id":47041,"wikiDataId":"Q726143","type":"CITY","city":"Tema","name":"Tema","latitude":5.6698,"longitude":-0.01657},{"id":47211,"wikiDataId":"Q1062602","type":"CITY","city":"Teshi Old Town","name":"Teshi Old Town","latitude":5.58365,"longitude":-0.10722}],"metadata":{"currentOffset":0,"totalCount":8}}
