{"data":[{"id":47504,"type":"CITY","city":"Kpandae","name":"Kpandae","latitude":8.46885,"longitude":-0.01127},{"id":47193,"wikiDataId":"Q995578","type":"CITY","city":"Salaga","name":"Salaga","latitude":8.55083,"longitude":-0.51875},{"id":47696,"wikiDataId":"Q2228059","type":"CITY","city":"Savelugu","name":"Savelugu","latitude":9.62441,"longitude":-0.8253},{"id":47419,"type":"CITY","city":"Tamale","name":"Tamale","latitude":9.40079,"longitude":-0.8393},{"id":47744,"wikiDataId":"Q639066","type":"CITY","city":"Yendi","name":"Yendi","latitude":9.44272,"longitude":-0.00991}],"metadata":{"currentOffset":0,"totalCount":5}}
