{"data":[{"id":46997,"type":"CITY","city":"Aboso","name":"Aboso","latitude":5.36073,"longitude":-1.94856},{"id":47817,"wikiDataId":"Q792509","type":"CITY","city":"Axim","name":"Axim","latitude":4.86641,"longitude":-2.24181},{"id":47627,"wikiDataId":"Q4903040","type":"CITY","city":"Bibiani","name":"Bibiani","latitude":6.46346,"longitude":-2.31938},{"id":47250,"wikiDataId":"Q2109005","type":"CITY","city":"Prestea","name":"Prestea","latitude":5.43385,"longitude":-2.14295},{"id":47691,"wikiDataId":"Q243293","type":"CITY","city":"Sekondi-Takoradi","name":"Sekondi-Takoradi","latitude":4.92678,"longitude":-1.75773},{"id":47140,"type":"CITY","city":"Shama Junction","name":"Shama Junction","latitude":5.01806,"longitude":-1.66437},{"id":46912,"type":"CITY","city":"Takoradi","name":"Takoradi","latitude":4.89816,"longitude":-1.76029},{"id":46961,"wikiDataId":"Q995439","type":"CITY","city":"Tarkwa","name":"Tarkwa","latitude":5.30383,"longitude":-1.98956}],"metadata":{"currentOffset":0,"totalCount":8}}
