{"data":[{"id":82316,"type":"CITY","city":"Aguié","name":"Aguié","latitude":13.50601,"longitude":7.77863},{"id":81899,"type":"CITY","city":"Dakoro","name":"Dakoro","latitude":14.51056,"longitude":6.765},{"id":82629,"wikiDataId":"Q664550","type":"CITY","city":"Maradi","name":"Maradi","latitude":13.5,"longitude":7.10174},{"id":82092,"type":"CITY","city":"Mayahi","name":"Mayahi","latitude":13.95532,"longitude":7.67122},{"id":82655,"type":"CITY","city":"Tessaoua","name":"Tessaoua","latitude":13.75737,"longitude":7.9874},{"id":82489,"type":"CITY","city":"Tibiri","name":"Tibiri","latitude":13.56271,"longitude":7.04848}],"metadata":{"currentOffset":0,"totalCount":6}}
