{"data":[{"id":82411,"type":"CITY","city":"Birni N Konni","name":"Birni N Konni","latitude":13.79599,"longitude":5.25026},{"id":82135,"type":"CITY","city":"Bouza","name":"Bouza","latitude":14.42293,"longitude":6.04278},{"id":82198,"type":"CITY","city":"Illéla","name":"Illéla","latitude":14.4605,"longitude":5.2437},{"id":81917,"type":"CITY","city":"Keïta","name":"Keïta","latitude":14.7551,"longitude":5.7749},{"id":82170,"type":"CITY","city":"Madaoua","name":"Madaoua","latitude":14.073,"longitude":5.96},{"id":82460,"type":"CITY","city":"Tahoua","name":"Tahoua","latitude":14.8888,"longitude":5.2692},{"id":81864,"type":"CITY","city":"Tchintabaraden","name":"Tchintabaraden","latitude":15.8969,"longitude":5.7985}],"metadata":{"currentOffset":0,"totalCount":7}}
