{"data":[{"id":70491,"wikiDataId":"Q622740","type":"CITY","city":"Akkol","name":"Akkol","latitude":51.99374,"longitude":70.94704},{"id":69931,"type":"CITY","city":"Akkol’","name":"Akkol’","latitude":53.29617,"longitude":69.59997},{"id":70692,"type":"CITY","city":"Aksu","name":"Aksu","latitude":52.44422,"longitude":71.95761},{"id":69877,"wikiDataId":"Q3448684","type":"CITY","city":"Astrakhan","name":"Astrakhan","latitude":51.53092,"longitude":69.79684},{"id":70657,"wikiDataId":"Q612144","type":"CITY","city":"Atbasar","name":"Atbasar","latitude":51.80652,"longitude":68.35996},{"id":70370,"type":"CITY","city":"Balkashino","name":"Balkashino","latitude":52.51779,"longitude":68.7516},{"id":70578,"type":"CITY","city":"Bestobe","name":"Bestobe","latitude":52.49795,"longitude":73.09592},{"id":70022,"wikiDataId":"Q2374413","type":"CITY","city":"Derzhavīnsk","name":"Derzhavīnsk","latitude":51.09922,"longitude":66.31557},{"id":69791,"wikiDataId":"Q3644611","type":"CITY","city":"Egindiköl","name":"Egindiköl","latitude":51.05412,"longitude":69.47928},{"id":70751,"wikiDataId":"Q1238323","type":"CITY","city":"Esil","name":"Esil","latitude":51.95495,"longitude":66.40841}],"links":[{"rel":"first","href":"/v1/geo/countries/Q232/regions/Q485056/cities?offset=0&limit=10"},{"rel":"next","href":"/v1/geo/countries/Q232/regions/Q485056/cities?offset=10&limit=10"},{"rel":"last","href":"/v1/geo/countries/Q232/regions/Q485056/cities?offset=20&limit=10"}],"metadata":{"currentOffset":0,"totalCount":22}}
{"data":[{"id":70705,"type":"CITY","city":"Krasnogorskiy","name":"Krasnogorskiy","latitude":52.2456,"longitude":66.52081},{"id":70329,"wikiDataId":"Q1019392","type":"CITY","city":"Makinsk","name":"Makinsk","latitude":52.6329,"longitude":70.41911},{"id":70048,"type":"CITY","city":"Shantobe","name":"Shantobe","latitude":52.45376,"longitude":68.17475},{"id":69807,"wikiDataId":"Q2030552","type":"CITY","city":"Shchuchinsk","name":"Shchuchinsk","latitude":52.93592,"longitude":70.18895},{"id":70300,"type":"CITY","city":"Shortandy","name":"Shortandy","latitude":51.69946,"longitude":70.99457},{"id":70105,"wikiDataId":"Q2030615","type":"CITY","city":"Stepnogorsk","name":"Stepnogorsk","latitude":52.35062,"longitude":71.88161},{"id":70131,"wikiDataId":"Q27352739","type":"CITY","city":"Stepnyak","name":"Stepnyak","latitude":52.83489,"longitude":70.78861},{"id":69933,"wikiDataId":"Q1019810","type":"CITY","city":"Yermentau","name":"Yermentau","latitude":51.62364,"longitude":73.10265},{"id":69983,"type":"CITY","city":"Zavodskoy","name":"Zavodskoy","latitude":52.47031,"longitude":72.01514},{"id":69794,"type":"CITY","city":"Zhaqsy","name":"Zhaqsy","latitude":51.91058,"longitude":67.31665}],"links":[{"rel":"first","href":"/v1/geo/countries/Q232/regions/Q485056/cities?offset=0&limit=10"},{"rel":"prev","href":"/v1/geo/countries/Q232/regions/Q485056/cities?offset=0&limit=10"},{"rel":"next","href":"/v1/geo/countries/Q232/regions/Q485056/cities?offset=20&limit=10"},{"rel":"last","href":"/v1/geo/countries/Q232/regions/Q485056/cities?offset=20&limit=10"}],"metadata":{"currentOffset":10,"totalCount":22}}
{"data":[{"id":70626,"type":"CITY","city":"Zholymbet","name":"Zholymbet","latitude":51.74211,"longitude":71.71245}],"links":[{"rel":"first","href":"/v1/geo/countries/Q232/regions/Q485056/cities?offset=0&limit=10"},{"rel":"prev","href":"/v1/geo/countries/Q232/regions/Q485056/cities?offset=10&limit=10"},{"rel":"last","href":"/v1/geo/countries/Q232/regions/Q485056/cities?offset=20&limit=10"}],"metadata":{"currentOffset":20,"totalCount":21}}
