{"data":[{"id":70299,"wikiDataId":"Q477232","type":"CITY","city":"Aktobe","name":"Aktobe","latitude":50.27969,"longitude":57.20718},{"id":70511,"type":"CITY","city":"Batamshinskiy","name":"Batamshinskiy","latitude":50.56022,"longitude":58.27715},{"id":70104,"type":"CITY","city":"Bayganin","name":"Bayganin","latitude":48.68975,"longitude":55.87512},{"id":69787,"wikiDataId":"Q2378028","type":"CITY","city":"Embi","name":"Embi","latitude":48.82981,"longitude":58.15042},{"id":70762,"wikiDataId":"Q2374438","type":"CITY","city":"Kandyagash","name":"Kandyagash","latitude":49.46912,"longitude":57.41914},{"id":70082,"wikiDataId":"Q1087785","type":"CITY","city":"Khromtau","name":"Khromtau","latitude":50.25117,"longitude":58.44003},{"id":70651,"wikiDataId":"Q4282692","type":"CITY","city":"Martuk","name":"Martuk","latitude":50.74746,"longitude":56.50611},{"id":70524,"type":"CITY","city":"Shalqar","name":"Shalqar","latitude":47.83333,"longitude":59.6},{"id":70030,"type":"CITY","city":"Shubarkuduk","name":"Shubarkuduk","latitude":49.14391,"longitude":56.48196},{"id":70047,"type":"CITY","city":"Shubarshi","name":"Shubarshi","latitude":48.58022,"longitude":57.18289}],"links":[{"rel":"first","href":"/v1/geo/countries/Q232/regions/Q485437/cities?offset=0&limit=10"},{"rel":"next","href":"/v1/geo/countries/Q232/regions/Q485437/cities?offset=10&limit=10"},{"rel":"last","href":"/v1/geo/countries/Q232/regions/Q485437/cities?offset=10&limit=10"}],"metadata":{"currentOffset":0,"totalCount":12}}
{"data":[{"id":70347,"wikiDataId":"Q4203114","type":"CITY","city":"Yrghyz","name":"Yrghyz","latitude":48.61667,"longitude":61.26667}],"links":[{"rel":"first","href":"/v1/geo/countries/Q232/regions/Q485437/cities?offset=0&limit=10"},{"rel":"prev","href":"/v1/geo/countries/Q232/regions/Q485437/cities?offset=0&limit=10"},{"rel":"last","href":"/v1/geo/countries/Q232/regions/Q485437/cities?offset=10&limit=10"}],"metadata":{"currentOffset":10,"totalCount":11}}
