{"data":[{"id":70247,"wikiDataId":"Q1047089","type":"CITY","city":"Bakanas","name":"Bakanas","latitude":44.80838,"longitude":76.27214},{"id":70709,"wikiDataId":"Q4076856","type":"CITY","city":"Balpyk Bī","name":"Balpyk Bī","latitude":44.90225,"longitude":78.23157},{"id":70711,"wikiDataId":"Q4093446","type":"CITY","city":"Burunday","name":"Burunday","latitude":43.35567,"longitude":76.85477},{"id":70029,"wikiDataId":"Q374060","type":"CITY","city":"Chemolgan","name":"Chemolgan","latitude":43.37633,"longitude":76.62456},{"id":70312,"wikiDataId":"Q1251114","type":"CITY","city":"Druzhba","name":"Druzhba","latitude":45.25332,"longitude":82.48044},{"id":70712,"wikiDataId":"Q1688290","type":"CITY","city":"Esik","name":"Esik","latitude":43.3552,"longitude":77.45245},{"id":70353,"wikiDataId":"Q1816833","type":"CITY","city":"Kapshagay","name":"Kapshagay","latitude":43.86681,"longitude":77.06304},{"id":69924,"wikiDataId":"Q4218840","type":"CITY","city":"Kegen","name":"Kegen","latitude":43.02143,"longitude":79.22055},{"id":70664,"wikiDataId":"Q4259190","type":"CITY","city":"Lepsy","name":"Lepsy","latitude":46.235,"longitude":78.94556},{"id":70397,"type":"CITY","city":"Matay","name":"Matay","latitude":45.895,"longitude":78.71806}],"links":[{"rel":"first","href":"/v1/geo/countries/Q232/regions/Q186466/cities?offset=0&limit=10"},{"rel":"next","href":"/v1/geo/countries/Q232/regions/Q186466/cities?offset=10&limit=10"},{"rel":"last","href":"/v1/geo/countries/Q232/regions/Q186466/cities?offset=20&limit=10"}],"metadata":{"currentOffset":0,"totalCount":21}}
{"data":[{"id":70183,"type":"CITY","city":"Pervomayka","name":"Pervomayka","latitude":43.37361,"longitude":76.94},{"id":70730,"wikiDataId":"Q1340535","type":"CITY","city":"Sarkand","name":"Sarkand","latitude":45.41126,"longitude":79.91545},{"id":69845,"wikiDataId":"Q4408890","type":"CITY","city":"Saryozek","name":"Saryozek","latitude":44.36178,"longitude":77.97279},{"id":69932,"wikiDataId":"Q491102","type":"CITY","city":"Taldykorgan","name":"Taldykorgan","latitude":45.01556,"longitude":78.37389},{"id":69840,"wikiDataId":"Q2302162","type":"CITY","city":"Talghar","name":"Talghar","latitude":43.30348,"longitude":77.24085},{"id":70004,"wikiDataId":"Q2302185","type":"CITY","city":"Tekeli","name":"Tekeli","latitude":44.83322,"longitude":78.83089},{"id":69981,"type":"CITY","city":"Turgen","name":"Turgen","latitude":43.40056,"longitude":77.59333},{"id":70146,"wikiDataId":"Q254928","type":"CITY","city":"Ush-Tyube","name":"Ush-Tyube","latitude":45.25201,"longitude":77.98007},{"id":70479,"wikiDataId":"Q2231416","type":"CITY","city":"Zharkent","name":"Zharkent","latitude":44.1666,"longitude":80.00655},{"id":70277,"type":"CITY","city":"Ülken","name":"Ülken","latitude":45.21194,"longitude":73.97861}],"links":[{"rel":"first","href":"/v1/geo/countries/Q232/regions/Q186466/cities?offset=0&limit=10"},{"rel":"prev","href":"/v1/geo/countries/Q232/regions/Q186466/cities?offset=0&limit=10"},{"rel":"next","href":"/v1/geo/countries/Q232/regions/Q186466/cities?offset=20&limit=10"},{"rel":"last","href":"/v1/geo/countries/Q232/regions/Q186466/cities?offset=20&limit=10"}],"metadata":{"currentOffset":10,"totalCount":21}}
{"data":[{"id":70277,"type":"CITY","city":"Ülken","name":"Ülken","latitude":45.21194,"longitude":73.97861}],"links":[{"rel":"first","href":"/v1/geo/countries/Q232/regions/Q186466/cities?offset=0&limit=10"},{"rel":"prev","href":"/v1/geo/countries/Q232/regions/Q186466/cities?offset=10&limit=10"},{"rel":"last","href":"/v1/geo/countries/Q232/regions/Q186466/cities?offset=20&limit=10"}],"metadata":{"currentOffset":20,"totalCount":21}}
