{"data":[{"id":70580,"type":"CITY","city":"Akkol’","name":"Akkol’","latitude":48.77177,"longitude":53.1858},{"id":69900,"wikiDataId":"Q486913","type":"CITY","city":"Atyrau","name":"Atyrau","latitude":47.11667,"longitude":51.88333},{"id":70335,"wikiDataId":"Q4077051","type":"CITY","city":"Balykshi","name":"Balykshi","latitude":47.06667,"longitude":51.86667},{"id":70134,"type":"CITY","city":"Bayshonas","name":"Bayshonas","latitude":47.24139,"longitude":52.94111},{"id":69810,"type":"CITY","city":"Dossor","name":"Dossor","latitude":47.52722,"longitude":52.98111},{"id":70314,"type":"CITY","city":"Inderbor","name":"Inderbor","latitude":48.55,"longitude":51.78333},{"id":69829,"type":"CITY","city":"Makhambet","name":"Makhambet","latitude":47.66667,"longitude":51.58333},{"id":70763,"type":"CITY","city":"Maloye Ganyushkino","name":"Maloye Ganyushkino","latitude":46.6,"longitude":49.26667},{"id":70115,"wikiDataId":"Q3260005","type":"CITY","city":"Maqat","name":"Maqat","latitude":47.65,"longitude":53.31667},{"id":70416,"wikiDataId":"Q3312361","type":"CITY","city":"Miyaly","name":"Miyaly","latitude":48.88504,"longitude":53.79194}],"links":[{"rel":"first","href":"/v1/geo/countries/Q232/regions/Q427658/cities?offset=0&limit=10"},{"rel":"next","href":"/v1/geo/countries/Q232/regions/Q427658/cities?offset=10&limit=10"},{"rel":"last","href":"/v1/geo/countries/Q232/regions/Q427658/cities?offset=10&limit=10"}],"metadata":{"currentOffset":0,"totalCount":13}}
{"data":[{"id":70020,"wikiDataId":"Q1268163","type":"CITY","city":"Qulsary","name":"Qulsary","latitude":46.95307,"longitude":54.01978},{"id":70667,"type":"CITY","city":"Shalkar","name":"Shalkar","latitude":48.03333,"longitude":48.9}],"links":[{"rel":"first","href":"/v1/geo/countries/Q232/regions/Q427658/cities?offset=0&limit=10"},{"rel":"prev","href":"/v1/geo/countries/Q232/regions/Q427658/cities?offset=0&limit=10"},{"rel":"last","href":"/v1/geo/countries/Q232/regions/Q427658/cities?offset=10&limit=10"}],"metadata":{"currentOffset":10,"totalCount":12}}
