{"data":[{"id":69908,"type":"CITY","city":"Altayskiy","name":"Altayskiy","latitude":50.24593,"longitude":82.36252},{"id":69772,"type":"CITY","city":"Aqtoghay","name":"Aqtoghay","latitude":46.95,"longitude":79.66667},{"id":70503,"type":"CITY","city":"Asūbulaq","name":"Asūbulaq","latitude":49.55688,"longitude":83.06355},{"id":69859,"type":"CITY","city":"Auezov","name":"Auezov","latitude":49.71003,"longitude":81.58018},{"id":70414,"wikiDataId":"Q2391391","type":"CITY","city":"Ayagoz","name":"Ayagoz","latitude":47.96447,"longitude":80.43437},{"id":70013,"type":"CITY","city":"Belogorskīy","name":"Belogorskīy","latitude":49.47698,"longitude":83.14803},{"id":70458,"wikiDataId":"Q4738017","type":"CITY","city":"Belousovka","name":"Belousovka","latitude":50.13287,"longitude":82.52481},{"id":70210,"type":"CITY","city":"Borodulikha","name":"Borodulikha","latitude":50.71841,"longitude":80.9295},{"id":70569,"type":"CITY","city":"Georgīevka","name":"Georgīevka","latitude":49.32671,"longitude":81.57373},{"id":70208,"type":"CITY","city":"Glubokoye","name":"Glubokoye","latitude":50.13887,"longitude":82.31114}],"links":[{"rel":"first","href":"/v1/geo/countries/Q232/regions/Q36156/cities?offset=0&limit=10"},{"rel":"next","href":"/v1/geo/countries/Q232/regions/Q36156/cities?offset=10&limit=10"},{"rel":"last","href":"/v1/geo/countries/Q232/regions/Q36156/cities?offset=30&limit=10"}],"metadata":{"currentOffset":0,"totalCount":30}}
{"data":[{"id":70585,"wikiDataId":"Q1046498","type":"CITY","city":"Kurchum","name":"Kurchum","latitude":48.56603,"longitude":83.66146},{"id":70356,"type":"CITY","city":"Maleyevsk","name":"Maleyevsk","latitude":49.81441,"longitude":84.29102},{"id":70559,"type":"CITY","city":"Ognevka","name":"Ognevka","latitude":49.68351,"longitude":83.01674},{"id":69913,"type":"CITY","city":"Priisk Boko","name":"Priisk Boko","latitude":49.06028,"longitude":81.64528},{"id":70000,"type":"CITY","city":"Qaraūyl","name":"Qaraūyl","latitude":48.94509,"longitude":79.25502},{"id":70555,"wikiDataId":"Q986100","type":"CITY","city":"Ridder","name":"Ridder","latitude":50.34413,"longitude":83.51287},{"id":70483,"wikiDataId":"Q61944","type":"CITY","city":"Semey","name":"Semey","latitude":50.42675,"longitude":80.26669},{"id":70032,"wikiDataId":"Q4507469","type":"CITY","city":"Shar","name":"Shar","latitude":49.5872,"longitude":81.04883},{"id":70098,"type":"CITY","city":"Shemonaīkha","name":"Shemonaīkha","latitude":50.62811,"longitude":81.91213},{"id":70558,"type":"CITY","city":"Suykbulak","name":"Suykbulak","latitude":49.70837,"longitude":81.04854}],"links":[{"rel":"first","href":"/v1/geo/countries/Q232/regions/Q36156/cities?offset=0&limit=10"},{"rel":"prev","href":"/v1/geo/countries/Q232/regions/Q36156/cities?offset=0&limit=10"},{"rel":"next","href":"/v1/geo/countries/Q232/regions/Q36156/cities?offset=20&limit=10"},{"rel":"last","href":"/v1/geo/countries/Q232/regions/Q36156/cities?offset=30&limit=10"}],"metadata":{"currentOffset":10,"totalCount":30}}
{"data":[{"id":70753,"type":"CITY","city":"Tūghyl","name":"Tūghyl","latitude":47.72521,"longitude":84.20629},{"id":70598,"wikiDataId":"Q2073917","type":"CITY","city":"Urzhar","name":"Urzhar","latitude":47.09302,"longitude":81.62939},{"id":70088,"wikiDataId":"Q162548","type":"CITY","city":"Ust-Kamenogorsk","name":"Ust-Kamenogorsk","latitude":49.97143,"longitude":82.60586},{"id":70034,"wikiDataId":"Q1881641","type":"CITY","city":"Zaysan","name":"Zaysan","latitude":47.46657,"longitude":84.87144},{"id":70476,"type":"CITY","city":"Zhalghyztobe","name":"Zhalghyztobe","latitude":49.21094,"longitude":81.21596},{"id":70225,"type":"CITY","city":"Zhanga Buqtyrma","name":"Zhanga Buqtyrma","latitude":49.6295,"longitude":83.52475},{"id":70216,"type":"CITY","city":"Zhezkent","name":"Zhezkent","latitude":50.93112,"longitude":81.3615},{"id":69922,"wikiDataId":"Q2139924","type":"CITY","city":"Zyryanovsk","name":"Zyryanovsk","latitude":49.72654,"longitude":84.27318},{"id":69949,"type":"CITY","city":"Ūst’-Talovka","name":"Ūst’-Talovka","latitude":50.54927,"longitude":81.84997}],"links":[{"rel":"first","href":"/v1/geo/countries/Q232/regions/Q36156/cities?offset=0&limit=10"},{"rel":"prev","href":"/v1/geo/countries/Q232/regions/Q36156/cities?offset=10&limit=10"},{"rel":"last","href":"/v1/geo/countries/Q232/regions/Q36156/cities?offset=30&limit=10"}],"metadata":{"currentOffset":20,"totalCount":30}}
