{"data":[{"id":70296,"type":"CITY","city":"Aqbaqay","name":"Aqbaqay","latitude":45.0,"longitude":72.78333},{"id":70395,"wikiDataId":"Q145802","type":"CITY","city":"Chu","name":"Chu","latitude":43.60334,"longitude":73.75919},{"id":70316,"type":"CITY","city":"Georgiyevka","name":"Georgiyevka","latitude":43.03882,"longitude":74.71287},{"id":70619,"type":"CITY","city":"Granitogorsk","name":"Granitogorsk","latitude":42.744,"longitude":73.46848},{"id":70665,"wikiDataId":"Q1850973","type":"CITY","city":"Karatau","name":"Karatau","latitude":43.17869,"longitude":70.46768},{"id":69856,"type":"CITY","city":"Khantaū","name":"Khantaū","latitude":44.22744,"longitude":73.79555},{"id":70614,"type":"CITY","city":"Lugovoy","name":"Lugovoy","latitude":42.94197,"longitude":72.76098},{"id":69883,"type":"CITY","city":"Lugovoye","name":"Lugovoye","latitude":42.9101,"longitude":72.72066},{"id":69862,"wikiDataId":"Q1921811","type":"CITY","city":"Merke","name":"Merke","latitude":42.86976,"longitude":73.18463},{"id":69865,"wikiDataId":"Q4299929","type":"CITY","city":"Moyynkum","name":"Moyynkum","latitude":44.28461,"longitude":72.9392}],"links":[{"rel":"first","href":"/v1/geo/countries/Q232/regions/Q486657/cities?offset=0&limit=10"},{"rel":"next","href":"/v1/geo/countries/Q232/regions/Q486657/cities?offset=10&limit=10"},{"rel":"last","href":"/v1/geo/countries/Q232/regions/Q486657/cities?offset=10&limit=10"}],"metadata":{"currentOffset":0,"totalCount":16}}
{"data":[{"id":70051,"type":"CITY","city":"Oytal","name":"Oytal","latitude":42.90573,"longitude":73.26972},{"id":70561,"wikiDataId":"Q4408883","type":"CITY","city":"Sarykemer","name":"Sarykemer","latitude":43.0,"longitude":71.5},{"id":70302,"type":"CITY","city":"Shyghanaq","name":"Shyghanaq","latitude":44.83056,"longitude":70.00194},{"id":69817,"wikiDataId":"Q486545","type":"CITY","city":"Taraz","name":"Taraz","latitude":42.9,"longitude":71.36667},{"id":70040,"wikiDataId":"Q27354537","type":"CITY","city":"Zhangatas","name":"Zhangatas","latitude":43.56222,"longitude":69.73428}],"links":[{"rel":"first","href":"/v1/geo/countries/Q232/regions/Q486657/cities?offset=0&limit=10"},{"rel":"prev","href":"/v1/geo/countries/Q232/regions/Q486657/cities?offset=0&limit=10"},{"rel":"last","href":"/v1/geo/countries/Q232/regions/Q486657/cities?offset=10&limit=10"}],"metadata":{"currentOffset":10,"totalCount":15}}
