{"data":[{"id":70252,"wikiDataId":"Q304827","type":"CITY","city":"Abay","name":"Abay","latitude":49.63575,"longitude":72.86164},{"id":70056,"type":"CITY","city":"Aksu-Ayuly","name":"Aksu-Ayuly","latitude":48.76788,"longitude":73.67272},{"id":70673,"type":"CITY","city":"Aktas","name":"Aktas","latitude":49.77952,"longitude":72.96128},{"id":70205,"type":"CITY","city":"Aktau","name":"Aktau","latitude":48.03333,"longitude":72.83333},{"id":70442,"type":"CITY","city":"Aktogay","name":"Aktogay","latitude":48.16667,"longitude":75.3},{"id":70091,"wikiDataId":"Q27350591","type":"CITY","city":"Aqadyr","name":"Aqadyr","latitude":48.26014,"longitude":72.85851},{"id":70385,"type":"CITY","city":"Aqshataū","name":"Aqshataū","latitude":47.98917,"longitude":74.0575},{"id":70714,"type":"CITY","city":"Atasū","name":"Atasū","latitude":48.68659,"longitude":71.64469},{"id":70570,"wikiDataId":"Q805515","type":"CITY","city":"Balqash","name":"Balqash","latitude":46.84806,"longitude":74.995},{"id":151903,"type":"ADM2","city":"Bukhar-Zhyrau","name":"Bukhar-Zhyrau","latitude":49.85658,"longitude":73.68118}],"links":[{"rel":"first","href":"/v1/geo/countries/Q232/regions/Q485429/cities?offset=0&limit=10"},{"rel":"next","href":"/v1/geo/countries/Q232/regions/Q485429/cities?offset=10&limit=10"},{"rel":"last","href":"/v1/geo/countries/Q232/regions/Q485429/cities?offset=30&limit=10"}],"metadata":{"currentOffset":0,"totalCount":36}}
{"data":[{"id":70264,"wikiDataId":"Q484706","type":"CITY","city":"Karagandy","name":"Karagandy","latitude":49.80187,"longitude":73.10211},{"id":70464,"type":"CITY","city":"Koktal","name":"Koktal","latitude":49.65,"longitude":73.51667},{"id":70371,"type":"CITY","city":"Kushoky","name":"Kushoky","latitude":50.23091,"longitude":73.40146},{"id":70481,"wikiDataId":"Q27352124","type":"CITY","city":"Kyzylzhar","name":"Kyzylzhar","latitude":49.98197,"longitude":72.60761},{"id":69884,"type":"CITY","city":"Kīevka","name":"Kīevka","latitude":50.26212,"longitude":71.54839},{"id":70152,"type":"CITY","city":"Moyynty","name":"Moyynty","latitude":47.22111,"longitude":73.36694},{"id":69781,"type":"CITY","city":"Novodolinskiy","name":"Novodolinskiy","latitude":49.7065,"longitude":72.70807},{"id":69899,"type":"CITY","city":"Osakarovka","name":"Osakarovka","latitude":50.56219,"longitude":72.57089},{"id":69958,"type":"CITY","city":"Prigorodnoye","name":"Prigorodnoye","latitude":49.69244,"longitude":75.58438},{"id":69792,"wikiDataId":"Q1019405","type":"CITY","city":"Priozersk","name":"Priozersk","latitude":46.03106,"longitude":73.70247}],"links":[{"rel":"first","href":"/v1/geo/countries/Q232/regions/Q485429/cities?offset=0&limit=10"},{"rel":"prev","href":"/v1/geo/countries/Q232/regions/Q485429/cities?offset=0&limit=10"},{"rel":"next","href":"/v1/geo/countries/Q232/regions/Q485429/cities?offset=20&limit=10"},{"rel":"last","href":"/v1/geo/countries/Q232/regions/Q485429/cities?offset=30&limit=10"}],"metadata":{"currentOffset":10,"totalCount":36}}
{"data":[{"id":70468,"wikiDataId":"Q27352595","type":"CITY","city":"Qarazhal","name":"Qarazhal","latitude":48.00627,"longitude":70.79607},{"id":70695,"wikiDataId":"Q1025808","type":"CITY","city":"Qarqaraly","name":"Qarqaraly","latitude":49.41287,"longitude":75.47286},{"id":70147,"wikiDataId":"Q262448","type":"CITY","city":"Saryshaghan","name":"Saryshaghan","latitude":46.11917,"longitude":73.61917},{"id":70407,"type":"CITY","city":"Sayaq","name":"Sayaq","latitude":47.0,"longitude":77.26667},{"id":70564,"type":"CITY","city":"Shakhan","name":"Shakhan","latitude":49.81958,"longitude":72.65407},{"id":69795,"type":"CITY","city":"Shakhtinsk","name":"Shakhtinsk","latitude":49.70885,"longitude":72.59212},{"id":70071,"type":"CITY","city":"Shashūbay","name":"Shashūbay","latitude":46.81694,"longitude":75.04028},{"id":69962,"type":"CITY","city":"Shubarköl","name":"Shubarköl","latitude":48.88222,"longitude":68.80722},{"id":69905,"wikiDataId":"Q1703483","type":"CITY","city":"Soran","name":"Soran","latitude":49.7908,"longitude":72.83744},{"id":70127,"wikiDataId":"Q1001104","type":"CITY","city":"Temirtau","name":"Temirtau","latitude":50.05494,"longitude":72.96464}],"links":[{"rel":"first","href":"/v1/geo/countries/Q232/regions/Q485429/cities?offset=0&limit=10"},{"rel":"prev","href":"/v1/geo/countries/Q232/regions/Q485429/cities?offset=10&limit=10"},{"rel":"next","href":"/v1/geo/countries/Q232/regions/Q485429/cities?offset=30&limit=10"},{"rel":"last","href":"/v1/geo/countries/Q232/regions/Q485429/cities?offset=30&limit=10"}],"metadata":{"currentOffset":20,"totalCount":36}}
{"data":[{"id":70596,"type":"CITY","city":"Tokarevka","name":"Tokarevka","latitude":50.11573,"longitude":73.16034},{"id":69812,"type":"CITY","city":"Verkhniye Kayrakty","name":"Verkhniye Kayrakty","latitude":48.68333,"longitude":73.28333},{"id":70521,"type":"CITY","city":"Zhambyl","name":"Zhambyl","latitude":47.20694,"longitude":71.39694},{"id":70315,"type":"CITY","city":"Zharyk","name":"Zharyk","latitude":48.85692,"longitude":72.83598},{"id":70374,"wikiDataId":"Q740832","type":"CITY","city":"Zhezqazghan","name":"Zhezqazghan","latitude":47.78333,"longitude":67.76667}],"links":[{"rel":"first","href":"/v1/geo/countries/Q232/regions/Q485429/cities?offset=0&limit=10"},{"rel":"prev","href":"/v1/geo/countries/Q232/regions/Q485429/cities?offset=20&limit=10"},{"rel":"last","href":"/v1/geo/countries/Q232/regions/Q485429/cities?offset=30&limit=10"}],"metadata":{"currentOffset":30,"totalCount":35}}
