{"data":[{"id":70259,"wikiDataId":"Q698941","type":"CITY","city":"Arkalyk","name":"Arkalyk","latitude":50.24915,"longitude":66.92027},{"id":69815,"type":"CITY","city":"Borovskoy","name":"Borovskoy","latitude":53.7927,"longitude":64.18268},{"id":70023,"wikiDataId":"Q1018868","type":"CITY","city":"Dzhetygara","name":"Dzhetygara","latitude":52.19019,"longitude":61.19894},{"id":70463,"type":"CITY","city":"Fyodorovka","name":"Fyodorovka","latitude":53.63809,"longitude":62.69653},{"id":70553,"type":"CITY","city":"Karasu","name":"Karasu","latitude":52.65995,"longitude":65.48421},{"id":70750,"type":"CITY","city":"Komsomolets","name":"Komsomolets","latitude":53.75019,"longitude":62.0584},{"id":70560,"wikiDataId":"Q488990","type":"CITY","city":"Kostanay","name":"Kostanay","latitude":53.21435,"longitude":63.62463},{"id":69811,"wikiDataId":"Q657052","type":"CITY","city":"Lisakovsk","name":"Lisakovsk","latitude":52.54707,"longitude":62.49987},{"id":70608,"type":"CITY","city":"Ordzhonikidze","name":"Ordzhonikidze","latitude":52.44772,"longitude":61.74942},{"id":70410,"wikiDataId":"Q27352596","type":"CITY","city":"Qashar","name":"Qashar","latitude":53.36799,"longitude":62.86839}],"links":[{"rel":"first","href":"/v1/geo/countries/Q232/regions/Q485605/cities?offset=0&limit=10"},{"rel":"next","href":"/v1/geo/countries/Q232/regions/Q485605/cities?offset=10&limit=10"},{"rel":"last","href":"/v1/geo/countries/Q232/regions/Q485605/cities?offset=10&limit=10"}],"metadata":{"currentOffset":0,"totalCount":16}}
{"data":[{"id":70727,"wikiDataId":"Q1008853","type":"CITY","city":"Rudnyy","name":"Rudnyy","latitude":52.9729,"longitude":63.11677},{"id":70701,"type":"CITY","city":"Taranovskoye","name":"Taranovskoye","latitude":52.83554,"longitude":62.52078},{"id":70240,"type":"CITY","city":"Tobol","name":"Tobol","latitude":52.69366,"longitude":62.5914},{"id":70199,"type":"CITY","city":"Torghay","name":"Torghay","latitude":49.63389,"longitude":63.49806},{"id":69975,"type":"CITY","city":"Troyebratskiy","name":"Troyebratskiy","latitude":54.44306,"longitude":66.07982}],"links":[{"rel":"first","href":"/v1/geo/countries/Q232/regions/Q485605/cities?offset=0&limit=10"},{"rel":"prev","href":"/v1/geo/countries/Q232/regions/Q485605/cities?offset=0&limit=10"},{"rel":"last","href":"/v1/geo/countries/Q232/regions/Q485605/cities?offset=10&limit=10"}],"metadata":{"currentOffset":10,"totalCount":15}}
