{"data":[{"id":70754,"wikiDataId":"Q165450","type":"CITY","city":"Aral","name":"Aral","latitude":46.8,"longitude":61.66667},{"id":69890,"wikiDataId":"Q2380922","type":"CITY","city":"Ayteke Bi","name":"Ayteke Bi","latitude":45.84607,"longitude":62.15264},{"id":70338,"type":"CITY","city":"Belköl","name":"Belköl","latitude":44.81162,"longitude":65.58796},{"id":69871,"type":"CITY","city":"Dzhalagash","name":"Dzhalagash","latitude":45.08333,"longitude":64.66667},{"id":69876,"wikiDataId":"Q491123","type":"CITY","city":"Kyzylorda","name":"Kyzylorda","latitude":44.85278,"longitude":65.50917},{"id":70530,"wikiDataId":"Q1557559","type":"CITY","city":"Qazaly","name":"Qazaly","latitude":45.76278,"longitude":62.1075},{"id":70429,"type":"CITY","city":"Sekseūil","name":"Sekseūil","latitude":47.09,"longitude":61.15194},{"id":70156,"type":"CITY","city":"Shalqīya","name":"Shalqīya","latitude":44.00947,"longitude":67.41062},{"id":70197,"type":"CITY","city":"Shīeli","name":"Shīeli","latitude":44.16882,"longitude":66.73887},{"id":70648,"wikiDataId":"Q4452304","type":"CITY","city":"Tasböget","name":"Tasböget","latitude":44.77384,"longitude":65.55227}],"links":[{"rel":"first","href":"/v1/geo/countries/Q232/regions/Q485322/cities?offset=0&limit=10"},{"rel":"next","href":"/v1/geo/countries/Q232/regions/Q485322/cities?offset=10&limit=10"},{"rel":"last","href":"/v1/geo/countries/Q232/regions/Q485322/cities?offset=10&limit=10"}],"metadata":{"currentOffset":0,"totalCount":13}}
{"data":[{"id":70227,"type":"CITY","city":"Yanykurgan","name":"Yanykurgan","latitude":43.90652,"longitude":67.24637},{"id":69953,"type":"CITY","city":"Zhosaly","name":"Zhosaly","latitude":45.48778,"longitude":64.07806}],"links":[{"rel":"first","href":"/v1/geo/countries/Q232/regions/Q485322/cities?offset=0&limit=10"},{"rel":"prev","href":"/v1/geo/countries/Q232/regions/Q485322/cities?offset=0&limit=10"},{"rel":"last","href":"/v1/geo/countries/Q232/regions/Q485322/cities?offset=10&limit=10"}],"metadata":{"currentOffset":10,"totalCount":12}}
