{"data":[{"id":70655,"wikiDataId":"Q198989","type":"CITY","city":"Aktau","name":"Aktau","latitude":43.65,"longitude":51.16667},{"id":70337,"type":"CITY","city":"Baūtīno","name":"Baūtīno","latitude":44.54479,"longitude":50.24629},{"id":70454,"wikiDataId":"Q650715","type":"CITY","city":"Beyneu","name":"Beyneu","latitude":45.31667,"longitude":55.2},{"id":70378,"wikiDataId":"Q1192007","type":"CITY","city":"Fort-Shevchenko","name":"Fort-Shevchenko","latitude":44.50654,"longitude":50.26388},{"id":69875,"wikiDataId":"Q12555151","type":"CITY","city":"Munayshy","name":"Munayshy","latitude":43.49111,"longitude":52.10861},{"id":70111,"type":"CITY","city":"Sayötesh","name":"Sayötesh","latitude":44.32781,"longitude":53.53246},{"id":70358,"wikiDataId":"Q4523462","type":"CITY","city":"Shetpe","name":"Shetpe","latitude":44.16667,"longitude":52.11667},{"id":70368,"type":"CITY","city":"Taūshyq","name":"Taūshyq","latitude":44.34678,"longitude":51.34932},{"id":69804,"wikiDataId":"Q4249095","type":"CITY","city":"Yeraliyev","name":"Yeraliyev","latitude":43.18032,"longitude":51.68116},{"id":70198,"wikiDataId":"Q1000852","type":"CITY","city":"Zhanaozen","name":"Zhanaozen","latitude":43.34116,"longitude":52.86192}],"links":[{"rel":"first","href":"/v1/geo/countries/Q232/regions/Q238931/cities?offset=0&limit=10"},{"rel":"next","href":"/v1/geo/countries/Q232/regions/Q238931/cities?offset=10&limit=10"},{"rel":"last","href":"/v1/geo/countries/Q232/regions/Q238931/cities?offset=10&limit=10"}],"metadata":{"currentOffset":0,"totalCount":12}}
{"data":[{"id":70253,"type":"CITY","city":"Ömirzaq","name":"Ömirzaq","latitude":43.59786,"longitude":51.24171}],"links":[{"rel":"first","href":"/v1/geo/countries/Q232/regions/Q238931/cities?offset=0&limit=10"},{"rel":"prev","href":"/v1/geo/countries/Q232/regions/Q238931/cities?offset=0&limit=10"},{"rel":"last","href":"/v1/geo/countries/Q232/regions/Q238931/cities?offset=10&limit=10"}],"metadata":{"currentOffset":10,"totalCount":11}}
