{"data":[{"id":70242,"wikiDataId":"Q27357540","type":"CITY","city":"Birlestik","name":"Birlestik","latitude":53.58414,"longitude":68.35382},{"id":70191,"type":"CITY","city":"Bishkul","name":"Bishkul","latitude":54.77763,"longitude":69.09951},{"id":70117,"type":"CITY","city":"Bulayevo","name":"Bulayevo","latitude":54.90596,"longitude":70.44155},{"id":70760,"wikiDataId":"Q1009456","type":"CITY","city":"Būrabay","name":"Būrabay","latitude":53.08382,"longitude":70.31379},{"id":70700,"wikiDataId":"Q30505","type":"CITY","city":"Kzyltu","name":"Kzyltu","latitude":53.63589,"longitude":72.34079},{"id":70249,"type":"CITY","city":"Novoishimskiy","name":"Novoishimskiy","latitude":53.19806,"longitude":66.76944},{"id":70572,"wikiDataId":"Q488379","type":"CITY","city":"Petropavl","name":"Petropavl","latitude":54.86667,"longitude":69.15},{"id":70310,"type":"CITY","city":"Sergeyevka","name":"Sergeyevka","latitude":53.88139,"longitude":67.40882},{"id":69991,"type":"CITY","city":"Smirnovo","name":"Smirnovo","latitude":54.5148,"longitude":69.42732},{"id":69820,"wikiDataId":"Q35362","type":"CITY","city":"Taiynsha","name":"Taiynsha","latitude":53.84796,"longitude":69.76773}],"links":[{"rel":"first","href":"/v1/geo/countries/Q232/regions/Q485088/cities?offset=0&limit=10"},{"rel":"next","href":"/v1/geo/countries/Q232/regions/Q485088/cities?offset=10&limit=10"},{"rel":"last","href":"/v1/geo/countries/Q232/regions/Q485088/cities?offset=10&limit=10"}],"metadata":{"currentOffset":0,"totalCount":14}}
{"data":[{"id":70258,"wikiDataId":"Q32382","type":"CITY","city":"Timiryazevo","name":"Timiryazevo","latitude":53.74947,"longitude":66.48852},{"id":70331,"type":"CITY","city":"Volodarskoye","name":"Volodarskoye","latitude":53.2927,"longitude":68.105},{"id":70095,"type":"CITY","city":"Yavlenka","name":"Yavlenka","latitude":54.34525,"longitude":68.4574}],"links":[{"rel":"first","href":"/v1/geo/countries/Q232/regions/Q485088/cities?offset=0&limit=10"},{"rel":"prev","href":"/v1/geo/countries/Q232/regions/Q485088/cities?offset=0&limit=10"},{"rel":"last","href":"/v1/geo/countries/Q232/regions/Q485088/cities?offset=10&limit=10"}],"metadata":{"currentOffset":10,"totalCount":13}}
