{"data":[{"id":70202,"wikiDataId":"Q622780","type":"CITY","city":"Aksu","name":"Aksu","latitude":52.04023,"longitude":76.92748},{"id":70495,"type":"CITY","city":"Bayanaul","name":"Bayanaul","latitude":50.79304,"longitude":75.70123},{"id":70174,"type":"CITY","city":"Belogor’ye","name":"Belogor’ye","latitude":51.52983,"longitude":77.47146},{"id":70041,"wikiDataId":"Q496442","type":"CITY","city":"Ekibastuz","name":"Ekibastuz","latitude":51.72371,"longitude":75.32287},{"id":70669,"type":"CITY","city":"Irtyshsk","name":"Irtyshsk","latitude":53.33365,"longitude":75.45775},{"id":70756,"type":"CITY","city":"Kalkaman","name":"Kalkaman","latitude":51.95349,"longitude":76.02723},{"id":70713,"type":"CITY","city":"Leninskiy","name":"Leninskiy","latitude":52.25346,"longitude":76.78211},{"id":69809,"wikiDataId":"Q4274825","type":"CITY","city":"Mayqayyng","name":"Mayqayyng","latitude":51.45981,"longitude":75.80232},{"id":70283,"wikiDataId":"Q486282","type":"CITY","city":"Pavlodar","name":"Pavlodar","latitude":52.28333,"longitude":76.96667},{"id":70099,"wikiDataId":"Q27351374","type":"CITY","city":"Qashyr","name":"Qashyr","latitude":53.06649,"longitude":76.10489}],"links":[{"rel":"first","href":"/v1/geo/countries/Q232/regions/Q486144/cities?offset=0&limit=10"},{"rel":"next","href":"/v1/geo/countries/Q232/regions/Q486144/cities?offset=10&limit=10"},{"rel":"last","href":"/v1/geo/countries/Q232/regions/Q486144/cities?offset=10&limit=10"}],"metadata":{"currentOffset":0,"totalCount":11}}
{"data":[{"id":70660,"type":"CITY","city":"Zhelezinka","name":"Zhelezinka","latitude":53.5388,"longitude":75.31326}],"links":[{"rel":"first","href":"/v1/geo/countries/Q232/regions/Q486144/cities?offset=0&limit=10"},{"rel":"prev","href":"/v1/geo/countries/Q232/regions/Q486144/cities?offset=0&limit=10"},{"rel":"last","href":"/v1/geo/countries/Q232/regions/Q486144/cities?offset=10&limit=10"}],"metadata":{"currentOffset":10,"totalCount":11}}
