{"data":[{"id":69944,"wikiDataId":"Q718108","type":"CITY","city":"Arys","name":"Arys","latitude":42.43015,"longitude":68.8087},{"id":69979,"wikiDataId":"Q12531259","type":"CITY","city":"Ashchysay","name":"Ashchysay","latitude":43.5537,"longitude":68.89792},{"id":70522,"wikiDataId":"Q4071858","type":"CITY","city":"Asyqata","name":"Asyqata","latitude":40.8946,"longitude":68.3643},{"id":70322,"wikiDataId":"Q4071940","type":"CITY","city":"Atakent","name":"Atakent","latitude":40.84782,"longitude":68.50643},{"id":70031,"wikiDataId":"Q12532833","type":"CITY","city":"Bayzhansay","name":"Bayzhansay","latitude":43.16708,"longitude":69.91459},{"id":69848,"wikiDataId":"Q2509316","type":"CITY","city":"Belyye Vody","name":"Belyye Vody","latitude":42.42193,"longitude":69.82709},{"id":70676,"wikiDataId":"Q1047741","type":"CITY","city":"Chardara","name":"Chardara","latitude":41.25832,"longitude":67.96991},{"id":70740,"wikiDataId":"Q4521580","type":"CITY","city":"Chayan","name":"Chayan","latitude":43.03399,"longitude":69.38048},{"id":69847,"wikiDataId":"Q4525984","type":"CITY","city":"Chulakkurgan","name":"Chulakkurgan","latitude":43.76453,"longitude":69.17856},{"id":70367,"wikiDataId":"Q12568918","type":"CITY","city":"Kantagi","name":"Kantagi","latitude":43.52786,"longitude":68.58287}],"links":[{"rel":"first","href":"/v1/geo/countries/Q232/regions/Q815330/cities?offset=0&limit=10"},{"rel":"next","href":"/v1/geo/countries/Q232/regions/Q815330/cities?offset=10&limit=10"},{"rel":"last","href":"/v1/geo/countries/Q232/regions/Q815330/cities?offset=20&limit=10"}],"metadata":{"currentOffset":0,"totalCount":22}}
{"data":[{"id":70582,"wikiDataId":"Q12551053","type":"CITY","city":"Kokterek","name":"Kokterek","latitude":42.49442,"longitude":70.25478},{"id":70351,"wikiDataId":"Q2378015","type":"CITY","city":"Lenger","name":"Lenger","latitude":42.18152,"longitude":69.88582},{"id":70487,"wikiDataId":"Q4208478","type":"CITY","city":"Leninskoye","name":"Leninskoye","latitude":41.7564,"longitude":69.3839},{"id":70262,"wikiDataId":"Q4309425","type":"CITY","city":"Myrzakent","name":"Myrzakent","latitude":40.66338,"longitude":68.5451},{"id":70348,"wikiDataId":"Q12533012","type":"CITY","city":"Qogham","name":"Qogham","latitude":42.82774,"longitude":68.28074},{"id":70121,"wikiDataId":"Q630676","type":"CITY","city":"Saryaghash","name":"Saryaghash","latitude":41.46042,"longitude":69.16791},{"id":69879,"wikiDataId":"Q12561247","type":"CITY","city":"Sastobe","name":"Sastobe","latitude":42.5533,"longitude":69.99835},{"id":69921,"wikiDataId":"Q4454454","type":"CITY","city":"Temirlanovka","name":"Temirlanovka","latitude":42.59998,"longitude":69.25836},{"id":70212,"wikiDataId":"Q4736474","type":"CITY","city":"Turar Ryskulov","name":"Turar Ryskulov","latitude":42.5334,"longitude":70.3496},{"id":70737,"wikiDataId":"Q848638","type":"CITY","city":"Turkestan","name":"Turkestan","latitude":43.29733,"longitude":68.25175}],"links":[{"rel":"first","href":"/v1/geo/countries/Q232/regions/Q815330/cities?offset=0&limit=10"},{"rel":"prev","href":"/v1/geo/countries/Q232/regions/Q815330/cities?offset=0&limit=10"},{"rel":"next","href":"/v1/geo/countries/Q232/regions/Q815330/cities?offset=20&limit=10"},{"rel":"last","href":"/v1/geo/countries/Q232/regions/Q815330/cities?offset=20&limit=10"}],"metadata":{"currentOffset":10,"totalCount":22}}
{"data":[{"id":70289,"type":"CITY","city":"Zhabagly","name":"Zhabagly","latitude":42.43781,"longitude":70.47841}],"links":[{"rel":"first","href":"/v1/geo/countries/Q232/regions/Q815330/cities?offset=0&limit=10"},{"rel":"prev","href":"/v1/geo/countries/Q232/regions/Q815330/cities?offset=10&limit=10"},{"rel":"last","href":"/v1/geo/countries/Q232/regions/Q815330/cities?offset=20&limit=10"}],"metadata":{"currentOffset":20,"totalCount":21}}
