{"data":[{"id":70525,"wikiDataId":"Q622760","type":"CITY","city":"Aqsay","name":"Aqsay","latitude":51.1681,"longitude":52.99782},{"id":69783,"type":"CITY","city":"Burlin","name":"Burlin","latitude":51.42724,"longitude":52.71392},{"id":70736,"wikiDataId":"Q4507143","type":"CITY","city":"Chapaev","name":"Chapaev","latitude":50.2,"longitude":51.16667},{"id":70718,"wikiDataId":"Q4516058","type":"CITY","city":"Chingirlau","name":"Chingirlau","latitude":51.09878,"longitude":54.08426},{"id":70583,"wikiDataId":"Q4737934","type":"CITY","city":"Dzhambeyty","name":"Dzhambeyty","latitude":50.25676,"longitude":52.59895},{"id":70402,"type":"CITY","city":"Fedorovka","name":"Fedorovka","latitude":51.22102,"longitude":51.95723},{"id":70301,"wikiDataId":"Q1047754","type":"CITY","city":"Kaztalovka","name":"Kaztalovka","latitude":49.76612,"longitude":48.68903},{"id":70255,"type":"CITY","city":"Kr큰gloozernoe","name":"Kr큰gloozernoe","latitude":51.07854,"longitude":51.28992},{"id":70586,"wikiDataId":"Q487439","type":"CITY","city":"Oral","name":"Oral","latitude":51.23333,"longitude":51.36667},{"id":70224,"wikiDataId":"Q4350661","type":"CITY","city":"Peremetnoe","name":"Peremetnoe","latitude":51.19925,"longitude":50.85544}],"links":[{"rel":"first","href":"/v1/geo/countries/Q232/regions/Q486007/cities?offset=0&limit=10"},{"rel":"next","href":"/v1/geo/countries/Q232/regions/Q486007/cities?offset=10&limit=10"},{"rel":"last","href":"/v1/geo/countries/Q232/regions/Q486007/cities?offset=10&limit=10"}],"metadata":{"currentOffset":0,"totalCount":13}}
{"data":[{"id":70011,"type":"CITY","city":"Tasqala","name":"Tasqala","latitude":51.11073,"longitude":50.29454},{"id":70045,"wikiDataId":"Q141468","type":"CITY","city":"Zh채nibek","name":"Zh채nibek","latitude":49.42207,"longitude":46.84705}],"links":[{"rel":"first","href":"/v1/geo/countries/Q232/regions/Q486007/cities?offset=0&limit=10"},{"rel":"prev","href":"/v1/geo/countries/Q232/regions/Q486007/cities?offset=0&limit=10"},{"rel":"last","href":"/v1/geo/countries/Q232/regions/Q486007/cities?offset=10&limit=10"}],"metadata":{"currentOffset":10,"totalCount":12}}
