{"data":[{"id":997,"type":"CITY","city":"Caconda","name":"Caconda","latitude":-13.73333,"longitude":15.06667},{"id":132154,"type":"ADM2","city":"Caluquembe","name":"Caluquembe","latitude":-13.92093,"longitude":14.53476},{"id":132148,"type":"ADM2","city":"Chibia","name":"Chibia","latitude":-15.23657,"longitude":13.88468},{"id":132149,"type":"ADM2","city":"Chicomba","name":"Chicomba","latitude":-14.30788,"longitude":14.98672},{"id":132150,"type":"ADM2","city":"Chipindo","name":"Chipindo","latitude":-13.8683,"longitude":15.73277},{"id":132119,"type":"ADM2","city":"Cuvango","name":"Cuvango","latitude":-14.27693,"longitude":16.31475},{"id":132152,"type":"ADM2","city":"Gambos","name":"Gambos","latitude":-15.80926,"longitude":14.07661},{"id":132141,"type":"ADM2","city":"Humpata","name":"Humpata","latitude":-15.0725,"longitude":13.36771},{"id":132120,"type":"ADM2","city":"Jamba","name":"Jamba","latitude":-14.76294,"longitude":15.83493},{"id":1151,"wikiDataId":"Q122044","type":"CITY","city":"Lubango","name":"Lubango","latitude":-14.91717,"longitude":13.4925}],"links":[{"rel":"first","href":"/v1/geo/countries/Q916/regions/Q214572/cities?offset=0&limit=10"},{"rel":"next","href":"/v1/geo/countries/Q916/regions/Q214572/cities?offset=10&limit=10"},{"rel":"last","href":"/v1/geo/countries/Q916/regions/Q214572/cities?offset=10&limit=10"}],"metadata":{"currentOffset":0,"totalCount":13}}
{"data":[{"id":132117,"type":"ADM2","city":"Quilengues","name":"Quilengues","latitude":-13.99213,"longitude":13.76705},{"id":132116,"type":"ADM2","city":"Quipungo","name":"Quipungo","latitude":-15.12203,"longitude":14.55953}],"links":[{"rel":"first","href":"/v1/geo/countries/Q916/regions/Q214572/cities?offset=0&limit=10"},{"rel":"prev","href":"/v1/geo/countries/Q916/regions/Q214572/cities?offset=0&limit=10"},{"rel":"last","href":"/v1/geo/countries/Q916/regions/Q214572/cities?offset=10&limit=10"}],"metadata":{"currentOffset":10,"totalCount":12}}
