{"data":[{"id":33981,"type":"CITY","city":"Abomsa","name":"Abomsa","latitude":9.98333,"longitude":39.98333},{"id":34551,"wikiDataId":"Q2824323","type":"CITY","city":"Addiet Canna","name":"Addiet Canna","latitude":11.26667,"longitude":37.48333},{"id":34248,"wikiDataId":"Q464699","type":"CITY","city":"Bahir Dar","name":"Bahir Dar","latitude":11.59364,"longitude":37.39077},{"id":34583,"wikiDataId":"Q2891356","type":"CITY","city":"Batī","name":"Batī","latitude":11.19152,"longitude":40.01675},{"id":33949,"wikiDataId":"Q2901625","type":"CITY","city":"Bichena","name":"Bichena","latitude":10.45,"longitude":38.2},{"id":34148,"wikiDataId":"Q2928324","type":"CITY","city":"Burē","name":"Burē","latitude":10.7,"longitude":37.06667},{"id":34331,"wikiDataId":"Q5207434","type":"CITY","city":"Dabat","name":"Dabat","latitude":12.98417,"longitude":37.765},{"id":34428,"wikiDataId":"Q1067464","type":"CITY","city":"Debark’","name":"Debark’","latitude":13.15611,"longitude":37.89806},{"id":34184,"wikiDataId":"Q1181637","type":"CITY","city":"Debre Birhan","name":"Debre Birhan","latitude":9.67954,"longitude":39.53262},{"id":33998,"wikiDataId":"Q1024659","type":"CITY","city":"Debre Mark’os","name":"Debre Mark’os","latitude":10.35,"longitude":37.73333}],"links":[{"rel":"first","href":"/v1/geo/countries/Q115/regions/Q203009/cities?offset=0&limit=10"},{"rel":"next","href":"/v1/geo/countries/Q115/regions/Q203009/cities?offset=10&limit=10"},{"rel":"last","href":"/v1/geo/countries/Q115/regions/Q203009/cities?offset=20&limit=10"}],"metadata":{"currentOffset":0,"totalCount":29}}
{"data":[{"id":34561,"wikiDataId":"Q163619","type":"CITY","city":"Debre Tabor","name":"Debre Tabor","latitude":11.85,"longitude":38.01667},{"id":34633,"type":"CITY","city":"Debre Werk’","name":"Debre Werk’","latitude":10.66667,"longitude":38.16667},{"id":34433,"wikiDataId":"Q5252725","type":"CITY","city":"Dejen","name":"Dejen","latitude":10.16667,"longitude":38.13333},{"id":34282,"wikiDataId":"Q755752","type":"CITY","city":"Desē","name":"Desē","latitude":11.13333,"longitude":39.63333},{"id":34539,"wikiDataId":"Q2354276","type":"CITY","city":"Finote Selam","name":"Finote Selam","latitude":10.7,"longitude":37.26667},{"id":34724,"wikiDataId":"Q218861","type":"CITY","city":"Gondar","name":"Gondar","latitude":12.6,"longitude":37.46667},{"id":33857,"type":"CITY","city":"Kemisē","name":"Kemisē","latitude":10.71668,"longitude":39.86997},{"id":33598,"wikiDataId":"Q222420","type":"CITY","city":"Kombolcha","name":"Kombolcha","latitude":11.08155,"longitude":39.74339},{"id":33304,"wikiDataId":"Q207590","type":"CITY","city":"Lalībela","name":"Lalībela","latitude":12.03219,"longitude":39.04756},{"id":144294,"wikiDataId":"Q1070780","type":"ADM2","city":"North Shewa Zone","name":"North Shewa Zone","latitude":9.769,"longitude":39.668}],"links":[{"rel":"first","href":"/v1/geo/countries/Q115/regions/Q203009/cities?offset=0&limit=10"},{"rel":"prev","href":"/v1/geo/countries/Q115/regions/Q203009/cities?offset=0&limit=10"},{"rel":"next","href":"/v1/geo/countries/Q115/regions/Q203009/cities?offset=20&limit=10"},{"rel":"last","href":"/v1/geo/countries/Q115/regions/Q203009/cities?offset=20&limit=10"}],"metadata":{"currentOffset":10,"totalCount":29}}
{"data":[{"id":144305,"wikiDataId":"Q2916300","type":"ADM2","city":"North Wollo Zone","name":"North Wollo Zone","latitude":11.92,"longitude":39.1},{"id":33836,"type":"CITY","city":"Robīt","name":"Robīt","latitude":12.01667,"longitude":39.63333},{"id":144314,"wikiDataId":"Q1070727","type":"ADM2","city":"South Gondar Zone","name":"South Gondar Zone","latitude":11.8385,"longitude":38.09954},{"id":144333,"wikiDataId":"Q2919962","type":"ADM2","city":"South Wollo Zone","name":"South Wollo Zone","latitude":11.0,"longitude":39.25},{"id":144311,"wikiDataId":"Q1070687","type":"ADM2","city":"Wag Hemra Zone","name":"Wag Hemra Zone","latitude":12.765,"longitude":38.843},{"id":32987,"wikiDataId":"Q3567301","type":"CITY","city":"Were Īlu","name":"Were Īlu","latitude":10.58964,"longitude":39.43767},{"id":33869,"wikiDataId":"Q3567308","type":"CITY","city":"Werota","name":"Werota","latitude":11.91667,"longitude":37.7},{"id":34125,"wikiDataId":"Q2472273","type":"CITY","city":"Ādīs Zemen","name":"Ādīs Zemen","latitude":12.11667,"longitude":37.78333}],"links":[{"rel":"first","href":"/v1/geo/countries/Q115/regions/Q203009/cities?offset=0&limit=10"},{"rel":"prev","href":"/v1/geo/countries/Q115/regions/Q203009/cities?offset=10&limit=10"},{"rel":"last","href":"/v1/geo/countries/Q115/regions/Q203009/cities?offset=20&limit=10"}],"metadata":{"currentOffset":20,"totalCount":28}}
