{"data":[{"id":144292,"wikiDataId":"Q646859","type":"ADM2","city":"Arsi Zone","name":"Arsi Zone","latitude":7.5,"longitude":39.5},{"id":34610,"wikiDataId":"Q2893561","type":"CITY","city":"Bedelē","name":"Bedelē","latitude":8.456,"longitude":36.35302},{"id":34606,"wikiDataId":"Q2893571","type":"CITY","city":"Bedēsa","name":"Bedēsa","latitude":8.9,"longitude":40.78333},{"id":34577,"wikiDataId":"Q740499","type":"CITY","city":"Bishoftu","name":"Bishoftu","latitude":8.75225,"longitude":38.97846},{"id":33976,"type":"CITY","city":"Deder","name":"Deder","latitude":9.31168,"longitude":41.44301},{"id":34254,"wikiDataId":"Q2563156","type":"CITY","city":"Dembī Dolo","name":"Dembī Dolo","latitude":8.53333,"longitude":34.8},{"id":34421,"wikiDataId":"Q3033674","type":"CITY","city":"Dodola","name":"Dodola","latitude":6.98333,"longitude":39.18333},{"id":144325,"wikiDataId":"Q3113831","type":"ADM2","city":"East Harerghe Zone","name":"East Harerghe Zone","latitude":8.70114,"longitude":42.00241},{"id":144298,"wikiDataId":"Q1109846","type":"ADM2","city":"East Shewa Zone","name":"East Shewa Zone","latitude":8.21353,"longitude":38.84809},{"id":144336,"wikiDataId":"Q1109870","type":"ADM2","city":"East Wellega Zone","name":"East Wellega Zone","latitude":9.51928,"longitude":36.75762}],"links":[{"rel":"first","href":"/v1/geo/countries/Q115/regions/Q202107/cities?offset=0&limit=10"},{"rel":"next","href":"/v1/geo/countries/Q115/regions/Q202107/cities?offset=10&limit=10"},{"rel":"last","href":"/v1/geo/countries/Q115/regions/Q202107/cities?offset=50&limit=10"}],"metadata":{"currentOffset":0,"totalCount":54}}
{"data":[{"id":34272,"wikiDataId":"Q3100037","type":"CITY","city":"Gebre Guracha","name":"Gebre Guracha","latitude":9.8,"longitude":38.4},{"id":34130,"wikiDataId":"Q3100278","type":"CITY","city":"Gelemso","name":"Gelemso","latitude":8.81667,"longitude":40.51667},{"id":34639,"wikiDataId":"Q3139315","type":"CITY","city":"Genet","name":"Genet","latitude":9.06667,"longitude":38.5},{"id":34123,"wikiDataId":"Q987235","type":"CITY","city":"Gimbi","name":"Gimbi","latitude":9.17031,"longitude":35.83491},{"id":33984,"wikiDataId":"Q3106775","type":"CITY","city":"Ginir","name":"Ginir","latitude":7.13952,"longitude":40.71083},{"id":33954,"wikiDataId":"Q745871","type":"CITY","city":"Goba","name":"Goba","latitude":7.01667,"longitude":39.98333},{"id":34016,"wikiDataId":"Q3110215","type":"CITY","city":"Gorē","name":"Gorē","latitude":8.15,"longitude":35.53333},{"id":144320,"wikiDataId":"Q5617057","type":"ADM2","city":"Guji Zone","name":"Guji Zone","latitude":5.588,"longitude":39.067},{"id":34680,"type":"CITY","city":"Gēdo","name":"Gēdo","latitude":9.01667,"longitude":37.45},{"id":34666,"wikiDataId":"Q3125692","type":"CITY","city":"Hagere Maryam","name":"Hagere Maryam","latitude":5.63418,"longitude":38.23603}],"links":[{"rel":"first","href":"/v1/geo/countries/Q115/regions/Q202107/cities?offset=0&limit=10"},{"rel":"prev","href":"/v1/geo/countries/Q115/regions/Q202107/cities?offset=0&limit=10"},{"rel":"next","href":"/v1/geo/countries/Q115/regions/Q202107/cities?offset=20&limit=10"},{"rel":"last","href":"/v1/geo/countries/Q115/regions/Q202107/cities?offset=50&limit=10"}],"metadata":{"currentOffset":10,"totalCount":54}}
{"data":[{"id":33489,"wikiDataId":"Q3143438","type":"CITY","city":"Huruta","name":"Huruta","latitude":8.15,"longitude":39.35},{"id":34444,"wikiDataId":"Q1266796","type":"CITY","city":"Hāgere Hiywet","name":"Hāgere Hiywet","latitude":8.98333,"longitude":37.85},{"id":33049,"wikiDataId":"Q5769883","type":"CITY","city":"Hīrna","name":"Hīrna","latitude":9.21667,"longitude":41.1},{"id":144304,"wikiDataId":"Q768586","type":"ADM2","city":"Illubabor Zone","name":"Illubabor Zone","latitude":8.27526,"longitude":35.75596},{"id":33232,"wikiDataId":"Q385341","type":"CITY","city":"Jimma","name":"Jimma","latitude":7.67344,"longitude":36.83441},{"id":144288,"wikiDataId":"Q1109877","type":"ADM2","city":"Jimma Zone","name":"Jimma Zone","latitude":7.66667,"longitude":37.0},{"id":33251,"type":"CITY","city":"Kibre Mengist","name":"Kibre Mengist","latitude":5.88333,"longitude":38.98333},{"id":33623,"wikiDataId":"Q934205","type":"CITY","city":"Kofelē","name":"Kofelē","latitude":7.06667,"longitude":38.78333},{"id":33071,"wikiDataId":"Q3305771","type":"CITY","city":"Mendī","name":"Mendī","latitude":9.8,"longitude":35.1},{"id":33757,"type":"CITY","city":"Metahāra","name":"Metahāra","latitude":8.9,"longitude":39.91667}],"links":[{"rel":"first","href":"/v1/geo/countries/Q115/regions/Q202107/cities?offset=0&limit=10"},{"rel":"prev","href":"/v1/geo/countries/Q115/regions/Q202107/cities?offset=10&limit=10"},{"rel":"next","href":"/v1/geo/countries/Q115/regions/Q202107/cities?offset=30&limit=10"},{"rel":"last","href":"/v1/geo/countries/Q115/regions/Q202107/cities?offset=50&limit=10"}],"metadata":{"currentOffset":20,"totalCount":54}}
{"data":[{"id":33928,"type":"CITY","city":"Metu","name":"Metu","latitude":8.3,"longitude":35.58333},{"id":33634,"wikiDataId":"Q3319332","type":"CITY","city":"Mojo","name":"Mojo","latitude":8.58679,"longitude":39.12111},{"id":33324,"wikiDataId":"Q3304215","type":"CITY","city":"Mēga","name":"Mēga","latitude":4.05,"longitude":38.3},{"id":33561,"type":"CITY","city":"Nazrēt","name":"Nazrēt","latitude":8.55,"longitude":39.26667},{"id":33497,"wikiDataId":"Q3337871","type":"CITY","city":"Nejo","name":"Nejo","latitude":9.5,"longitude":35.5},{"id":144335,"wikiDataId":"Q3478428","type":"ADM2","city":"North Shewa Zone","name":"North Shewa Zone","latitude":9.66915,"longitude":38.8124},{"id":33498,"wikiDataId":"Q3476942","type":"CITY","city":"Sebeta","name":"Sebeta","latitude":8.91667,"longitude":38.61667},{"id":33675,"wikiDataId":"Q3478522","type":"CITY","city":"Sendafa","name":"Sendafa","latitude":9.15203,"longitude":39.02335},{"id":33421,"wikiDataId":"Q3481278","type":"CITY","city":"Shakiso","name":"Shakiso","latitude":5.76494,"longitude":38.91006},{"id":33212,"wikiDataId":"Q3481302","type":"CITY","city":"Shambu","name":"Shambu","latitude":9.56667,"longitude":37.1}],"links":[{"rel":"first","href":"/v1/geo/countries/Q115/regions/Q202107/cities?offset=0&limit=10"},{"rel":"prev","href":"/v1/geo/countries/Q115/regions/Q202107/cities?offset=20&limit=10"},{"rel":"next","href":"/v1/geo/countries/Q115/regions/Q202107/cities?offset=40&limit=10"},{"rel":"last","href":"/v1/geo/countries/Q115/regions/Q202107/cities?offset=50&limit=10"}],"metadata":{"currentOffset":30,"totalCount":54}}
{"data":[{"id":33719,"wikiDataId":"Q731020","type":"CITY","city":"Shashemenē","name":"Shashemenē","latitude":7.2,"longitude":38.6},{"id":33523,"type":"CITY","city":"Sirre","name":"Sirre","latitude":8.31667,"longitude":39.48333},{"id":33085,"wikiDataId":"Q4465171","type":"CITY","city":"Tulu Bolo","name":"Tulu Bolo","latitude":8.66667,"longitude":38.21667},{"id":34268,"wikiDataId":"Q3565377","type":"CITY","city":"Waliso","name":"Waliso","latitude":8.53417,"longitude":37.96515},{"id":32970,"type":"CITY","city":"Wenjī","name":"Wenjī","latitude":8.45,"longitude":39.28333},{"id":144312,"wikiDataId":"Q1109889","type":"ADM2","city":"West Harerghe Zone","name":"West Harerghe Zone","latitude":8.67245,"longitude":40.84885},{"id":144317,"wikiDataId":"Q1709377","type":"ADM2","city":"West Wellega Zone","name":"West Wellega Zone","latitude":9.17283,"longitude":35.05279},{"id":33132,"wikiDataId":"Q1067172","type":"CITY","city":"Yabēlo","name":"Yabēlo","latitude":4.88333,"longitude":38.08333},{"id":33872,"wikiDataId":"Q2570767","type":"CITY","city":"Ziway","name":"Ziway","latitude":7.93333,"longitude":38.71667},{"id":34057,"wikiDataId":"Q353038","type":"CITY","city":"Ādīs ‘Alem","name":"Ādīs ‘Alem","latitude":9.03333,"longitude":38.4}],"links":[{"rel":"first","href":"/v1/geo/countries/Q115/regions/Q202107/cities?offset=0&limit=10"},{"rel":"prev","href":"/v1/geo/countries/Q115/regions/Q202107/cities?offset=30&limit=10"},{"rel":"next","href":"/v1/geo/countries/Q115/regions/Q202107/cities?offset=50&limit=10"},{"rel":"last","href":"/v1/geo/countries/Q115/regions/Q202107/cities?offset=50&limit=10"}],"metadata":{"currentOffset":40,"totalCount":54}}
{"data":[{"id":34007,"wikiDataId":"Q1110037","type":"CITY","city":"Āgaro","name":"Āgaro","latitude":7.85,"longitude":36.65},{"id":34618,"wikiDataId":"Q2866322","type":"CITY","city":"Āsasa","name":"Āsasa","latitude":7.1,"longitude":39.2},{"id":34635,"wikiDataId":"Q764231","type":"CITY","city":"Āsbe Teferī","name":"Āsbe Teferī","latitude":9.08569,"longitude":40.86708}],"links":[{"rel":"first","href":"/v1/geo/countries/Q115/regions/Q202107/cities?offset=0&limit=10"},{"rel":"prev","href":"/v1/geo/countries/Q115/regions/Q202107/cities?offset=40&limit=10"},{"rel":"last","href":"/v1/geo/countries/Q115/regions/Q202107/cities?offset=50&limit=10"}],"metadata":{"currentOffset":50,"totalCount":53}}
