{"data":[{"id":144301,"wikiDataId":"Q2829448","type":"ADM2","city":"Alaba Special Wereda","name":"Alaba Special Wereda","latitude":7.45347,"longitude":38.21189},{"id":34024,"wikiDataId":"Q626861","type":"CITY","city":"Arba Minch","name":"Arba Minch","latitude":6.03333,"longitude":37.55},{"id":34357,"type":"CITY","city":"Bako","name":"Bako","latitude":5.78333,"longitude":36.56667},{"id":144285,"wikiDataId":"Q2895686","type":"ADM2","city":"Bench Maji Zone","name":"Bench Maji Zone","latitude":6.45994,"longitude":35.30549},{"id":34766,"wikiDataId":"Q965112","type":"CITY","city":"Bodītī","name":"Bodītī","latitude":6.96667,"longitude":37.86667},{"id":34328,"type":"CITY","city":"Bonga","name":"Bonga","latitude":7.28333,"longitude":36.23333},{"id":34786,"wikiDataId":"Q2928812","type":"CITY","city":"Butajīra","name":"Butajīra","latitude":8.11667,"longitude":38.36667},{"id":34220,"type":"CITY","city":"Dīla","name":"Dīla","latitude":6.41667,"longitude":38.31667},{"id":34334,"type":"CITY","city":"Felege Neway","name":"Felege Neway","latitude":6.3,"longitude":36.88333},{"id":144327,"wikiDataId":"Q500213","type":"ADM2","city":"Gedeo Zone","name":"Gedeo Zone","latitude":6.12727,"longitude":38.27716}],"links":[{"rel":"first","href":"/v1/geo/countries/Q115/regions/Q203193/cities?offset=0&limit=10"},{"rel":"next","href":"/v1/geo/countries/Q115/regions/Q203193/cities?offset=10&limit=10"},{"rel":"last","href":"/v1/geo/countries/Q115/regions/Q203193/cities?offset=30&limit=10"}],"metadata":{"currentOffset":0,"totalCount":33}}
{"data":[{"id":144301,"wikiDataId":"Q2829448","type":"ADM2","city":"Alaba Special Wereda","name":"Alaba Special Wereda","latitude":7.45347,"longitude":38.21189},{"id":34024,"wikiDataId":"Q626861","type":"CITY","city":"Arba Minch","name":"Arba Minch","latitude":6.03333,"longitude":37.55},{"id":34357,"type":"CITY","city":"Bako","name":"Bako","latitude":5.78333,"longitude":36.56667},{"id":144285,"wikiDataId":"Q2895686","type":"ADM2","city":"Bench Maji Zone","name":"Bench Maji Zone","latitude":6.45994,"longitude":35.30549},{"id":34766,"wikiDataId":"Q965112","type":"CITY","city":"Bodītī","name":"Bodītī","latitude":6.96667,"longitude":37.86667},{"id":34328,"type":"CITY","city":"Bonga","name":"Bonga","latitude":7.28333,"longitude":36.23333},{"id":34786,"wikiDataId":"Q2928812","type":"CITY","city":"Butajīra","name":"Butajīra","latitude":8.11667,"longitude":38.36667},{"id":34220,"type":"CITY","city":"Dīla","name":"Dīla","latitude":6.41667,"longitude":38.31667},{"id":34334,"type":"CITY","city":"Felege Neway","name":"Felege Neway","latitude":6.3,"longitude":36.88333},{"id":144327,"wikiDataId":"Q500213","type":"ADM2","city":"Gedeo Zone","name":"Gedeo Zone","latitude":6.12727,"longitude":38.27716}],"links":[{"rel":"first","href":"/v1/geo/countries/Q115/regions/Q203193/cities?offset=0&limit=10"},{"rel":"next","href":"/v1/geo/countries/Q115/regions/Q203193/cities?offset=10&limit=10"},{"rel":"last","href":"/v1/geo/countries/Q115/regions/Q203193/cities?offset=30&limit=10"}],"metadata":{"currentOffset":0,"totalCount":33}}
{"data":[{"id":34675,"wikiDataId":"Q3105416","type":"CITY","city":"Gīdolē","name":"Gīdolē","latitude":5.65,"longitude":37.36667},{"id":144287,"wikiDataId":"Q3125547","type":"ADM2","city":"Hadiya Zone","name":"Hadiya Zone","latitude":7.5,"longitude":37.75},{"id":34321,"wikiDataId":"Q755765","type":"CITY","city":"Hawassa","name":"Hawassa","latitude":7.06205,"longitude":38.47635},{"id":33586,"wikiDataId":"Q2754082","type":"CITY","city":"Hosa’ina","name":"Hosa’ina","latitude":7.54978,"longitude":37.85374},{"id":34634,"wikiDataId":"Q3125693","type":"CITY","city":"Hāgere Selam","name":"Hāgere Selam","latitude":6.48333,"longitude":38.51667},{"id":33565,"wikiDataId":"Q3110186","type":"CITY","city":"Jinka","name":"Jinka","latitude":5.65,"longitude":36.65},{"id":144331,"wikiDataId":"Q3194972","type":"ADM2","city":"Kembata Alaba Tembaro Zone","name":"Kembata Alaba Tembaro Zone","latitude":7.27039,"longitude":37.77887},{"id":33839,"wikiDataId":"Q575352","type":"CITY","city":"Konso","name":"Konso","latitude":5.25,"longitude":37.48333},{"id":33503,"type":"CITY","city":"K’olīto","name":"K’olīto","latitude":7.31667,"longitude":38.08333},{"id":33767,"type":"CITY","city":"Leku","name":"Leku","latitude":6.87309,"longitude":38.44425}],"links":[{"rel":"first","href":"/v1/geo/countries/Q115/regions/Q203193/cities?offset=0&limit=10"},{"rel":"prev","href":"/v1/geo/countries/Q115/regions/Q203193/cities?offset=0&limit=10"},{"rel":"next","href":"/v1/geo/countries/Q115/regions/Q203193/cities?offset=20&limit=10"},{"rel":"last","href":"/v1/geo/countries/Q115/regions/Q203193/cities?offset=30&limit=10"}],"metadata":{"currentOffset":10,"totalCount":33}}
{"data":[{"id":34675,"wikiDataId":"Q3105416","type":"CITY","city":"Gīdolē","name":"Gīdolē","latitude":5.65,"longitude":37.36667},{"id":144287,"wikiDataId":"Q3125547","type":"ADM2","city":"Hadiya Zone","name":"Hadiya Zone","latitude":7.5,"longitude":37.75},{"id":34321,"wikiDataId":"Q755765","type":"CITY","city":"Hawassa","name":"Hawassa","latitude":7.06205,"longitude":38.47635},{"id":33586,"wikiDataId":"Q2754082","type":"CITY","city":"Hosa’ina","name":"Hosa’ina","latitude":7.54978,"longitude":37.85374},{"id":34634,"wikiDataId":"Q3125693","type":"CITY","city":"Hāgere Selam","name":"Hāgere Selam","latitude":6.48333,"longitude":38.51667},{"id":33565,"wikiDataId":"Q3110186","type":"CITY","city":"Jinka","name":"Jinka","latitude":5.65,"longitude":36.65},{"id":144331,"wikiDataId":"Q3194972","type":"ADM2","city":"Kembata Alaba Tembaro Zone","name":"Kembata Alaba Tembaro Zone","latitude":7.27039,"longitude":37.77887},{"id":33839,"wikiDataId":"Q575352","type":"CITY","city":"Konso","name":"Konso","latitude":5.25,"longitude":37.48333},{"id":33503,"type":"CITY","city":"K’olīto","name":"K’olīto","latitude":7.31667,"longitude":38.08333},{"id":33767,"type":"CITY","city":"Leku","name":"Leku","latitude":6.87309,"longitude":38.44425}],"links":[{"rel":"first","href":"/v1/geo/countries/Q115/regions/Q203193/cities?offset=0&limit=10"},{"rel":"prev","href":"/v1/geo/countries/Q115/regions/Q203193/cities?offset=0&limit=10"},{"rel":"next","href":"/v1/geo/countries/Q115/regions/Q203193/cities?offset=20&limit=10"},{"rel":"last","href":"/v1/geo/countries/Q115/regions/Q203193/cities?offset=30&limit=10"}],"metadata":{"currentOffset":10,"totalCount":33}}
{"data":[{"id":33342,"type":"CITY","city":"Lobuni","name":"Lobuni","latitude":4.83333,"longitude":36.1},{"id":33689,"wikiDataId":"Q3317332","type":"CITY","city":"Mīzan Teferī","name":"Mīzan Teferī","latitude":6.99865,"longitude":35.58879},{"id":144392,"wikiDataId":"Q7493221","type":"ADM2","city":"Sheka Zone","name":"Sheka Zone","latitude":7.56166,"longitude":35.40174},{"id":144316,"wikiDataId":"Q1070673","type":"ADM2","city":"Sidama Zone","name":"Sidama Zone","latitude":6.718,"longitude":38.448},{"id":34211,"type":"CITY","city":"Sodo","name":"Sodo","latitude":6.86,"longitude":37.76159},{"id":33831,"wikiDataId":"Q1067163","type":"CITY","city":"Tippi","name":"Tippi","latitude":7.2,"longitude":35.45},{"id":33382,"wikiDataId":"Q991408","type":"CITY","city":"Turmi","name":"Turmi","latitude":4.96667,"longitude":36.48333},{"id":33210,"type":"CITY","city":"Wendo","name":"Wendo","latitude":6.6,"longitude":38.41667},{"id":144283,"wikiDataId":"Q8029709","type":"ADM2","city":"Wolayita Zone","name":"Wolayita Zone","latitude":6.84312,"longitude":37.70051},{"id":144321,"type":"ADM2","city":"Yem","name":"Yem","latitude":7.83333,"longitude":37.5}],"links":[{"rel":"first","href":"/v1/geo/countries/Q115/regions/Q203193/cities?offset=0&limit=10"},{"rel":"prev","href":"/v1/geo/countries/Q115/regions/Q203193/cities?offset=10&limit=10"},{"rel":"next","href":"/v1/geo/countries/Q115/regions/Q203193/cities?offset=30&limit=10"},{"rel":"last","href":"/v1/geo/countries/Q115/regions/Q203193/cities?offset=30&limit=10"}],"metadata":{"currentOffset":20,"totalCount":33}}
{"data":[{"id":33291,"wikiDataId":"Q2189137","type":"CITY","city":"Yirga ‘Alem","name":"Yirga ‘Alem","latitude":6.75,"longitude":38.41667},{"id":34774,"wikiDataId":"Q4788771","type":"CITY","city":"Āreka","name":"Āreka","latitude":7.06667,"longitude":37.7}],"links":[{"rel":"first","href":"/v1/geo/countries/Q115/regions/Q203193/cities?offset=0&limit=10"},{"rel":"prev","href":"/v1/geo/countries/Q115/regions/Q203193/cities?offset=20&limit=10"},{"rel":"last","href":"/v1/geo/countries/Q115/regions/Q203193/cities?offset=30&limit=10"}],"metadata":{"currentOffset":30,"totalCount":32}}
