{"data":[{"id":34454,"wikiDataId":"Q5832","type":"CITY","city":"Axum","name":"Axum","latitude":14.12109,"longitude":38.72337},{"id":33511,"wikiDataId":"Q743859","type":"CITY","city":"Inda Silasē","name":"Inda Silasē","latitude":14.10307,"longitude":38.28289},{"id":33537,"wikiDataId":"Q3198925","type":"CITY","city":"Korem","name":"Korem","latitude":12.50583,"longitude":39.52278},{"id":33837,"wikiDataId":"Q3111786","type":"CITY","city":"Maych’ew","name":"Maych’ew","latitude":12.7875,"longitude":39.54222},{"id":33645,"wikiDataId":"Q332319","type":"CITY","city":"Mek'ele","name":"Mek'ele","latitude":13.49667,"longitude":39.47528},{"id":144355,"type":"ADM2","city":"Southeastern Tigray Zone","name":"Southeastern Tigray Zone","latitude":13.24797,"longitude":39.53156},{"id":144307,"wikiDataId":"Q3020955","type":"ADM2","city":"Southern Tigray Zone","name":"Southern Tigray Zone","latitude":12.96033,"longitude":39.52831},{"id":34000,"wikiDataId":"Q357101","type":"CITY","city":"Ādīgrat","name":"Ādīgrat","latitude":14.277,"longitude":39.462}],"metadata":{"currentOffset":0,"totalCount":8}}