{"data":[{"id":69439,"wikiDataId":"Q1111957","type":"CITY","city":"Busia","name":"Busia","latitude":0.46005,"longitude":34.11169},{"id":69069,"wikiDataId":"Q3242959","type":"CITY","city":"Kiambu","name":"Kiambu","latitude":-1.17139,"longitude":36.83556},{"id":69722,"wikiDataId":"Q1026079","type":"CITY","city":"Kikuyu","name":"Kikuyu","latitude":-1.24627,"longitude":36.66291},{"id":69681,"wikiDataId":"Q1825607","type":"CITY","city":"Limuru","name":"Limuru","latitude":-1.1136,"longitude":36.64205},{"id":69659,"type":"CITY","city":"Luanda","name":"Luanda","latitude":0.31354,"longitude":34.07146},{"id":69395,"type":"CITY","city":"Lugulu","name":"Lugulu","latitude":0.39337,"longitude":34.30399},{"id":69498,"wikiDataId":"Q6740728","type":"CITY","city":"Malaba","name":"Malaba","latitude":0.63513,"longitude":34.28165},{"id":69608,"type":"CITY","city":"Nambare","name":"Nambare","latitude":0.45813,"longitude":34.25353},{"id":69215,"type":"CITY","city":"Port Victoria","name":"Port Victoria","latitude":0.09809,"longitude":33.97248}],"metadata":{"currentOffset":0,"totalCount":9}}
