{"data":[{"id":68868,"wikiDataId":"Q2280998","type":"CITY","city":"Ahero","name":"Ahero","latitude":-0.17359,"longitude":34.9189},{"id":69552,"wikiDataId":"Q1009161","type":"CITY","city":"Homa Bay","name":"Homa Bay","latitude":-0.52731,"longitude":34.45714},{"id":69351,"wikiDataId":"Q214485","type":"CITY","city":"Kisumu","name":"Kisumu","latitude":-0.10221,"longitude":34.76171},{"id":68853,"type":"CITY","city":"Muhoroni","name":"Muhoroni","latitude":-0.15816,"longitude":35.19645},{"id":68917,"type":"CITY","city":"Oyugis","name":"Oyugis","latitude":-0.50974,"longitude":34.73067},{"id":150937,"wikiDataId":"Q2125323","type":"ADM2","city":"Rachuonyo District","name":"Rachuonyo District","latitude":-0.44,"longitude":34.739}],"metadata":{"currentOffset":0,"totalCount":6}}
