{"data":[{"id":68875,"type":"CITY","city":"Iten","name":"Iten","latitude":0.67028,"longitude":35.50806},{"id":69373,"wikiDataId":"Q1009149","type":"CITY","city":"Kapsowar","name":"Kapsowar","latitude":0.9789,"longitude":35.55854},{"id":69167,"wikiDataId":"Q1009199","type":"CITY","city":"Kilifi","name":"Kilifi","latitude":-3.63045,"longitude":39.84992},{"id":69270,"type":"CITY","city":"Makueni Boma","name":"Makueni Boma","latitude":-1.80388,"longitude":37.62405},{"id":69674,"wikiDataId":"Q271411","type":"CITY","city":"Malindi","name":"Malindi","latitude":-3.21799,"longitude":40.11692},{"id":69443,"wikiDataId":"Q6761771","type":"CITY","city":"Mariakani","name":"Mariakani","latitude":-3.86261,"longitude":39.47458},{"id":69121,"wikiDataId":"Q6930477","type":"CITY","city":"Mtito Andei","name":"Mtito Andei","latitude":-2.68987,"longitude":38.16687},{"id":68778,"wikiDataId":"Q3236500","type":"CITY","city":"Takaungu","name":"Takaungu","latitude":-3.6835,"longitude":39.85687},{"id":69564,"wikiDataId":"Q7193508","type":"CITY","city":"Wote","name":"Wote","latitude":-1.78079,"longitude":37.62882}],"metadata":{"currentOffset":0,"totalCount":9}}
