{"data":[{"id":69352,"wikiDataId":"Q4813647","type":"CITY","city":"Athi River","name":"Athi River","latitude":-1.4563,"longitude":36.97826},{"id":69764,"wikiDataId":"Q6362919","type":"CITY","city":"Kangundo","name":"Kangundo","latitude":-1.30342,"longitude":37.34813},{"id":69239,"wikiDataId":"Q2719508","type":"CITY","city":"Kijabe","name":"Kijabe","latitude":-0.93334,"longitude":36.57233},{"id":68797,"wikiDataId":"Q6430460","type":"CITY","city":"Konza","name":"Konza","latitude":-1.73947,"longitude":37.13195},{"id":69713,"wikiDataId":"Q693093","type":"CITY","city":"Machakos","name":"Machakos","latitude":-1.52233,"longitude":37.26521},{"id":69729,"wikiDataId":"Q3506442","type":"CITY","city":"Molo","name":"Molo","latitude":-0.24849,"longitude":35.73194},{"id":69243,"wikiDataId":"Q1007647","type":"CITY","city":"Naivasha","name":"Naivasha","latitude":-0.71383,"longitude":36.43261},{"id":69272,"wikiDataId":"Q239421","type":"CITY","city":"Nakuru","name":"Nakuru","latitude":-0.30719,"longitude":36.07225},{"id":69539,"wikiDataId":"Q984201","type":"CITY","city":"Rongai","name":"Rongai","latitude":-0.17344,"longitude":35.86313}],"metadata":{"currentOffset":0,"totalCount":9}}
