{"data":[{"id":69514,"wikiDataId":"Q5243392","type":"CITY","city":"Kihancha","name":"Kihancha","latitude":-1.19347,"longitude":34.61967},{"id":69707,"wikiDataId":"Q1932505","type":"CITY","city":"Migori","name":"Migori","latitude":-1.06343,"longitude":34.47313},{"id":69741,"wikiDataId":"Q2743647","type":"CITY","city":"Naro Moru","name":"Naro Moru","latitude":-0.16357,"longitude":37.01773},{"id":68927,"wikiDataId":"Q380130","type":"CITY","city":"Nyeri","name":"Nyeri","latitude":-0.42013,"longitude":36.94759},{"id":69652,"wikiDataId":"Q7108565","type":"CITY","city":"Othaya","name":"Othaya","latitude":-0.54655,"longitude":36.93178}],"metadata":{"currentOffset":0,"totalCount":5}}
